[{"id":1,"name":"Ågesta","country":"Sweden","countryCode":"SE","status":"Shutdown","reactorType":"PHWR","capacityMw":9,"latitude":59.206,"longitude":18.0829,"operationalFrom":"1964-05-01","operationalTo":"1974-06-02"},{"id":2,"name":"Akademik Lomonosov-1","country":"Russia","countryCode":"RU","status":"Operational","reactorType":"PWR","capacityMw":30,"latitude":69.709579,"longitude":170.30625,"operationalFrom":"2020-05-22","operationalTo":null},{"id":3,"name":"Akademik Lomonosov-2","country":"Russia","countryCode":"RU","status":"Operational","reactorType":"PWR","capacityMw":30,"latitude":69.709579,"longitude":170.30625,"operationalFrom":"2020-05-22","operationalTo":null},{"id":6,"name":"Akkuyu-1","country":"Türkiye","countryCode":"TR","status":"Under Construction","reactorType":"PWR","capacityMw":1114,"latitude":36.144444,"longitude":33.541111,"operationalFrom":null,"operationalTo":null},{"id":7,"name":"Akkuyu-2","country":"Türkiye","countryCode":"TR","status":"Under Construction","reactorType":"PWR","capacityMw":1114,"latitude":36.144444,"longitude":33.541111,"operationalFrom":null,"operationalTo":null},{"id":8,"name":"Akkuyu-3","country":"Türkiye","countryCode":"TR","status":"Under Construction","reactorType":"PWR","capacityMw":1114,"latitude":36.144444,"longitude":33.541111,"operationalFrom":null,"operationalTo":null},{"id":9,"name":"Akkuyu-4","country":"Türkiye","countryCode":"TR","status":"Under Construction","reactorType":"PWR","capacityMw":1114,"latitude":36.144444,"longitude":33.541111,"operationalFrom":null,"operationalTo":null},{"id":10,"name":"Aktau (Shevchenko)","country":"Kazakhstan","countryCode":"KZ","status":"Shutdown","reactorType":"FBR","capacityMw":52,"latitude":43.607,"longitude":51.283,"operationalFrom":"1973-07-16","operationalTo":"1999-04-22"},{"id":11,"name":"Almaraz-1","country":"Spain","countryCode":"ES","status":"Operational","reactorType":"PWR","capacityMw":900,"latitude":39.807,"longitude":-5.698,"operationalFrom":"1983-09-01","operationalTo":null},{"id":12,"name":"Almaraz-2","country":"Spain","countryCode":"ES","status":"Operational","reactorType":"PWR","capacityMw":900,"latitude":39.807,"longitude":-5.698,"operationalFrom":"1984-07-01","operationalTo":null},{"id":13,"name":"Angra-1","country":"Brazil","countryCode":"BR","status":"Operational","reactorType":"PWR","capacityMw":609,"latitude":-23.008,"longitude":-44.457,"operationalFrom":"1985-01-01","operationalTo":null},{"id":14,"name":"Angra-2","country":"Brazil","countryCode":"BR","status":"Operational","reactorType":"PWR","capacityMw":1245,"latitude":-23.008,"longitude":-44.457,"operationalFrom":"2001-02-01","operationalTo":null},{"id":15,"name":"Angra-3","country":"Brazil","countryCode":"BR","status":"Under Construction","reactorType":"PWR","capacityMw":1340,"latitude":-23.01,"longitude":-44.47,"operationalFrom":null,"operationalTo":null},{"id":16,"name":"APS-1 Obninsk","country":"Russia","countryCode":"RU","status":"Shutdown","reactorType":"LWGR","capacityMw":5,"latitude":55.084,"longitude":36.57,"operationalFrom":"1954-12-01","operationalTo":"2002-04-29"},{"id":17,"name":"Arkansas Nuclear One-1 (ANO-1)","country":"United States","countryCode":"US","status":"Operational","reactorType":"PWR","capacityMw":850,"latitude":35.31,"longitude":-93.23,"operationalFrom":"1974-12-19","operationalTo":null},{"id":18,"name":"Arkansas Nuclear One-2 (ANO-2)","country":"United States","countryCode":"US","status":"Operational","reactorType":"PWR","capacityMw":912,"latitude":35.31,"longitude":-93.229,"operationalFrom":"1980-03-26","operationalTo":null},{"id":19,"name":"Armenian-1","country":"Armenia","countryCode":"AM","status":"Shutdown","reactorType":"PWR","capacityMw":376,"latitude":40.182,"longitude":44.147,"operationalFrom":"1977-10-06","operationalTo":"1989-02-25"},{"id":20,"name":"Armenian-2","country":"Armenia","countryCode":"AM","status":"Operational","reactorType":"PWR","capacityMw":375,"latitude":40.182,"longitude":44.147,"operationalFrom":"1980-05-03","operationalTo":null},{"id":21,"name":"Armenian-3","country":"Armenia","countryCode":"AM","status":"Planned","reactorType":"PWR","capacityMw":null,"latitude":40.1808,"longitude":44.1472,"operationalFrom":null,"operationalTo":null},{"id":22,"name":"Asco-1","country":"Spain","countryCode":"ES","status":"Operational","reactorType":"PWR","capacityMw":888,"latitude":41.202,"longitude":0.571,"operationalFrom":"1984-12-10","operationalTo":null},{"id":23,"name":"Asco-2","country":"Spain","countryCode":"ES","status":"Operational","reactorType":"PWR","capacityMw":888,"latitude":41.202,"longitude":0.571,"operationalFrom":"1986-03-31","operationalTo":null},{"id":24,"name":"Atucha-1","country":"Argentina","countryCode":"AR","status":"Operational","reactorType":"PHWR","capacityMw":319,"latitude":-33.967,"longitude":-59.209,"operationalFrom":"1974-06-23","operationalTo":null},{"id":25,"name":"Atucha-2","country":"Argentina","countryCode":"AR","status":"Operational","reactorType":"PHWR","capacityMw":692,"latitude":-33.967,"longitude":-59.209,"operationalFrom":"2016-05-25","operationalTo":null},{"id":26,"name":"Balakovo-1","country":"Russia","countryCode":"RU","status":"Operational","reactorType":"PWR","capacityMw":950,"latitude":52.092,"longitude":47.952,"operationalFrom":"1986-05-23","operationalTo":null},{"id":27,"name":"Balakovo-2","country":"Russia","countryCode":"RU","status":"Operational","reactorType":"PWR","capacityMw":950,"latitude":52.092,"longitude":47.952,"operationalFrom":"1988-01-18","operationalTo":null},{"id":28,"name":"Balakovo-3","country":"Russia","countryCode":"RU","status":"Operational","reactorType":"PWR","capacityMw":950,"latitude":52.092,"longitude":47.952,"operationalFrom":"1989-04-08","operationalTo":null},{"id":29,"name":"Balakovo-4","country":"Russia","countryCode":"RU","status":"Operational","reactorType":"PWR","capacityMw":950,"latitude":52.092,"longitude":47.952,"operationalFrom":"1993-12-22","operationalTo":null},{"id":30,"name":"Baltic-1","country":"Russia","countryCode":"RU","status":"Under Construction","reactorType":"PWR","capacityMw":1109,"latitude":54.939,"longitude":22.162,"operationalFrom":null,"operationalTo":null},{"id":31,"name":"Barakah-1 (Braka)","country":"United Arab Emirates","countryCode":"AE","status":"Operational","reactorType":"PWR","capacityMw":1310,"latitude":23.952748,"longitude":52.193298,"operationalFrom":"2021-04-01","operationalTo":null},{"id":32,"name":"Barakah-2 (Braka)","country":"United Arab Emirates","countryCode":"AE","status":"Operational","reactorType":"PWR","capacityMw":1310,"latitude":23.952748,"longitude":52.193298,"operationalFrom":"2022-03-24","operationalTo":null},{"id":33,"name":"Barakah-3 (Braka)","country":"United Arab Emirates","countryCode":"AE","status":"Operational","reactorType":"PWR","capacityMw":1310,"latitude":23.952748,"longitude":52.203298,"operationalFrom":"2023-02-24","operationalTo":null},{"id":36,"name":"Barseback-1","country":"Sweden","countryCode":"SE","status":"Shutdown","reactorType":"BWR","capacityMw":570,"latitude":55.745,"longitude":12.926,"operationalFrom":"1975-07-01","operationalTo":"1999-11-30"},{"id":37,"name":"Barseback-2","country":"Sweden","countryCode":"SE","status":"Shutdown","reactorType":"BWR","capacityMw":570,"latitude":55.745,"longitude":12.926,"operationalFrom":"1977-07-01","operationalTo":"2005-05-31"},{"id":38,"name":"Beaver Valley-1","country":"United States","countryCode":"US","status":"Operational","reactorType":"PWR","capacityMw":835,"latitude":40.624,"longitude":-80.432,"operationalFrom":"1976-10-01","operationalTo":null},{"id":39,"name":"Beaver Valley-2","country":"United States","countryCode":"US","status":"Operational","reactorType":"PWR","capacityMw":836,"latitude":40.624,"longitude":-80.432,"operationalFrom":"1987-11-17","operationalTo":null},{"id":40,"name":"Belarusian-1","country":"Belarus","countryCode":"BY","status":"Operational","reactorType":"PWR","capacityMw":1110,"latitude":54.766667,"longitude":26.116667,"operationalFrom":"2021-06-10","operationalTo":null},{"id":41,"name":"Belarusian-2","country":"Belarus","countryCode":"BY","status":"Operational","reactorType":"PWR","capacityMw":1110,"latitude":54.766667,"longitude":26.116667,"operationalFrom":"2023-11-01","operationalTo":null},{"id":42,"name":"Belene-1","country":"Bulgaria","countryCode":"BG","status":"Cancelled Construction","reactorType":"PWR","capacityMw":953,"latitude":43.62453,"longitude":25.18675,"operationalFrom":null,"operationalTo":null},{"id":43,"name":"Belene-2","country":"Bulgaria","countryCode":"BG","status":"Cancelled Construction","reactorType":"PWR","capacityMw":953,"latitude":43.62453,"longitude":25.1865,"operationalFrom":null,"operationalTo":null},{"id":44,"name":"Belleville-1","country":"France","countryCode":"FR","status":"Operational","reactorType":"PWR","capacityMw":1310,"latitude":47.511,"longitude":2.871,"operationalFrom":"1988-06-01","operationalTo":null},{"id":45,"name":"Belleville-2","country":"France","countryCode":"FR","status":"Operational","reactorType":"PWR","capacityMw":1310,"latitude":47.511,"longitude":2.871,"operationalFrom":"1989-01-01","operationalTo":null},{"id":46,"name":"Beloyarsk-1","country":"Russia","countryCode":"RU","status":"Shutdown","reactorType":"LWGR","capacityMw":102,"latitude":56.842,"longitude":61.321,"operationalFrom":"1964-04-26","operationalTo":"1983-01-01"},{"id":47,"name":"Beloyarsk-2","country":"Russia","countryCode":"RU","status":"Shutdown","reactorType":"LWGR","capacityMw":146,"latitude":56.842,"longitude":61.321,"operationalFrom":"1969-12-01","operationalTo":"1990-01-01"},{"id":48,"name":"Beloyarsk-3","country":"Russia","countryCode":"RU","status":"Operational","reactorType":"FBR","capacityMw":560,"latitude":56.842,"longitude":61.321,"operationalFrom":"1981-11-01","operationalTo":null},{"id":49,"name":"Beloyarsk-4","country":"Russia","countryCode":"RU","status":"Operational","reactorType":"FBR","capacityMw":820,"latitude":56.842,"longitude":61.321,"operationalFrom":"2016-10-31","operationalTo":null},{"id":50,"name":"Beloyarsk-5","country":"Russia","countryCode":"RU","status":"Planned","reactorType":"FBR","capacityMw":null,"latitude":56.842,"longitude":61.321,"operationalFrom":null,"operationalTo":null},{"id":51,"name":"Berkeley-1","country":"United Kingdom","countryCode":"GB","status":"Shutdown","reactorType":"GCR","capacityMw":138,"latitude":51.692,"longitude":-2.494,"operationalFrom":"1962-06-12","operationalTo":"1989-03-31"},{"id":52,"name":"Berkeley-2","country":"United Kingdom","countryCode":"GB","status":"Shutdown","reactorType":"GCR","capacityMw":138,"latitude":51.692,"longitude":-2.494,"operationalFrom":"1962-10-20","operationalTo":"1988-10-26"},{"id":53,"name":"Beznau-1","country":"Switzerland","countryCode":"CH","status":"Operational","reactorType":"PWR","capacityMw":350,"latitude":47.552,"longitude":8.229,"operationalFrom":"1969-12-09","operationalTo":null},{"id":54,"name":"Beznau-2","country":"Switzerland","countryCode":"CH","status":"Operational","reactorType":"PWR","capacityMw":350,"latitude":47.552,"longitude":8.229,"operationalFrom":"1972-03-04","operationalTo":null},{"id":55,"name":"Biblis-A","country":"Germany","countryCode":"DE","status":"Shutdown","reactorType":"PWR","capacityMw":1146,"latitude":49.709,"longitude":8.415,"operationalFrom":"1975-02-26","operationalTo":"2011-08-06"},{"id":56,"name":"Biblis-B","country":"Germany","countryCode":"DE","status":"Shutdown","reactorType":"PWR","capacityMw":1178,"latitude":49.709,"longitude":8.415,"operationalFrom":"1977-01-31","operationalTo":"2011-08-06"},{"id":57,"name":"Big Rock Point","country":"United States","countryCode":"US","status":"Shutdown","reactorType":"BWR","capacityMw":72,"latitude":45.359,"longitude":-85.195,"operationalFrom":"1963-03-29","operationalTo":"1997-08-29"},{"id":58,"name":"Bilibino-1","country":"Russia","countryCode":"RU","status":"Shutdown","reactorType":"LWGR","capacityMw":11,"latitude":68.059,"longitude":166.492,"operationalFrom":"1974-04-01","operationalTo":"2019-01-14"},{"id":59,"name":"Bilibino-2","country":"Russia","countryCode":"RU","status":"Operational","reactorType":"LWGR","capacityMw":11,"latitude":68.059,"longitude":166.492,"operationalFrom":"1975-02-01","operationalTo":null},{"id":60,"name":"Bilibino-3","country":"Russia","countryCode":"RU","status":"Operational","reactorType":"LWGR","capacityMw":11,"latitude":68.059,"longitude":166.492,"operationalFrom":"1976-02-01","operationalTo":null},{"id":61,"name":"Bilibino-4","country":"Russia","countryCode":"RU","status":"Operational","reactorType":"LWGR","capacityMw":11,"latitude":68.059,"longitude":166.492,"operationalFrom":"1977-01-01","operationalTo":null},{"id":62,"name":"Blayais-1","country":"France","countryCode":"FR","status":"Operational","reactorType":"PWR","capacityMw":910,"latitude":45.256,"longitude":-0.691,"operationalFrom":"1981-12-01","operationalTo":null},{"id":63,"name":"Blayais-2","country":"France","countryCode":"FR","status":"Operational","reactorType":"PWR","capacityMw":910,"latitude":45.256,"longitude":-0.691,"operationalFrom":"1983-02-01","operationalTo":null},{"id":64,"name":"Blayais-3","country":"France","countryCode":"FR","status":"Operational","reactorType":"PWR","capacityMw":910,"latitude":45.256,"longitude":-0.691,"operationalFrom":"1983-11-14","operationalTo":null},{"id":65,"name":"Blayais-4","country":"France","countryCode":"FR","status":"Operational","reactorType":"PWR","capacityMw":910,"latitude":45.256,"longitude":-0.691,"operationalFrom":"1983-10-01","operationalTo":null},{"id":66,"name":"Bohunice-1","country":"Slovakia","countryCode":"SK","status":"Shutdown","reactorType":"PWR","capacityMw":408,"latitude":48.494,"longitude":17.687,"operationalFrom":"1980-04-01","operationalTo":"2006-12-31"},{"id":67,"name":"Bohunice-2","country":"Slovakia","countryCode":"SK","status":"Shutdown","reactorType":"PWR","capacityMw":408,"latitude":48.494,"longitude":17.687,"operationalFrom":"1981-01-01","operationalTo":"2008-12-31"},{"id":68,"name":"Bohunice-3","country":"Slovakia","countryCode":"SK","status":"Operational","reactorType":"PWR","capacityMw":466,"latitude":48.494,"longitude":17.687,"operationalFrom":"1985-02-14","operationalTo":null},{"id":69,"name":"Bohunice-4","country":"Slovakia","countryCode":"SK","status":"Operational","reactorType":"PWR","capacityMw":466,"latitude":48.494,"longitude":17.687,"operationalFrom":"1985-12-18","operationalTo":null},{"id":70,"name":"Bohunice-A1","country":"Slovakia","countryCode":"SK","status":"Shutdown","reactorType":"HWGCR","capacityMw":110,"latitude":48.494,"longitude":17.687,"operationalFrom":"1972-12-25","operationalTo":"1977-02-22"},{"id":71,"name":"BONUS","country":"United States","countryCode":"US","status":"Shutdown","reactorType":"BWR","capacityMw":17,"latitude":18.365,"longitude":-67.268,"operationalFrom":"1965-09-01","operationalTo":"1968-06-01"},{"id":72,"name":"Borssele","country":"Netherlands","countryCode":"NL","status":"Operational","reactorType":"PWR","capacityMw":495,"latitude":51.431,"longitude":3.719,"operationalFrom":"1973-10-26","operationalTo":null},{"id":73,"name":"BR-3","country":"Belgium","countryCode":"BE","status":"Shutdown","reactorType":"PWR","capacityMw":11,"latitude":51.217,"longitude":5.099,"operationalFrom":"1962-10-10","operationalTo":"1987-06-30"},{"id":74,"name":"Bradwell-1","country":"United Kingdom","countryCode":"GB","status":"Shutdown","reactorType":"GCR","capacityMw":150,"latitude":51.742,"longitude":0.899,"operationalFrom":"1962-07-01","operationalTo":"2002-03-31"},{"id":75,"name":"Bradwell-2","country":"United Kingdom","countryCode":"GB","status":"Shutdown","reactorType":"GCR","capacityMw":150,"latitude":51.742,"longitude":0.899,"operationalFrom":"1962-11-12","operationalTo":"2002-03-30"},{"id":76,"name":"Braidwood-1","country":"United States","countryCode":"US","status":"Operational","reactorType":"PWR","capacityMw":1120,"latitude":41.247,"longitude":-88.23,"operationalFrom":"1988-07-29","operationalTo":null},{"id":77,"name":"Braidwood-2","country":"United States","countryCode":"US","status":"Operational","reactorType":"PWR","capacityMw":1120,"latitude":41.247,"longitude":-88.23,"operationalFrom":"1988-10-17","operationalTo":null},{"id":79,"name":"Brokdorf","country":"Germany","countryCode":"DE","status":"Shutdown","reactorType":"PWR","capacityMw":1307,"latitude":53.85,"longitude":9.345,"operationalFrom":"1986-12-22","operationalTo":"2021-12-31"},{"id":80,"name":"Browns Ferry-1","country":"United States","countryCode":"US","status":"Operational","reactorType":"BWR","capacityMw":1065,"latitude":34.704,"longitude":-87.119,"operationalFrom":"1974-12-20","operationalTo":null},{"id":81,"name":"Browns Ferry-2","country":"United States","countryCode":"US","status":"Operational","reactorType":"BWR","capacityMw":1065,"latitude":34.704,"longitude":-87.119,"operationalFrom":"1975-03-01","operationalTo":null},{"id":82,"name":"Browns Ferry-3","country":"United States","countryCode":"US","status":"Operational","reactorType":"BWR","capacityMw":1065,"latitude":34.704,"longitude":-87.119,"operationalFrom":"1977-03-01","operationalTo":null},{"id":83,"name":"Bruce-1","country":"Canada","countryCode":"CA","status":"Operational","reactorType":"PHWR","capacityMw":732,"latitude":44.341,"longitude":-81.572,"operationalFrom":"1977-09-01","operationalTo":null},{"id":84,"name":"Bruce-2","country":"Canada","countryCode":"CA","status":"Operational","reactorType":"PHWR","capacityMw":732,"latitude":44.341,"longitude":-81.572,"operationalFrom":"1977-09-01","operationalTo":null},{"id":85,"name":"Bruce-3","country":"Canada","countryCode":"CA","status":"Operational","reactorType":"PHWR","capacityMw":750,"latitude":44.341,"longitude":-81.572,"operationalFrom":"1978-02-01","operationalTo":null},{"id":86,"name":"Bruce-4","country":"Canada","countryCode":"CA","status":"Operational","reactorType":"PHWR","capacityMw":750,"latitude":44.341,"longitude":-81.572,"operationalFrom":"1979-01-18","operationalTo":null},{"id":87,"name":"Bruce-5","country":"Canada","countryCode":"CA","status":"Operational","reactorType":"PHWR","capacityMw":822,"latitude":44.341,"longitude":-81.572,"operationalFrom":"1985-02-28","operationalTo":null},{"id":88,"name":"Bruce-6","country":"Canada","countryCode":"CA","status":"Operational","reactorType":"PHWR","capacityMw":822,"latitude":44.341,"longitude":-81.572,"operationalFrom":"1984-09-14","operationalTo":null},{"id":89,"name":"Bruce-7","country":"Canada","countryCode":"CA","status":"Operational","reactorType":"PHWR","capacityMw":822,"latitude":44.341,"longitude":-81.572,"operationalFrom":"1986-04-10","operationalTo":null},{"id":90,"name":"Bruce-8","country":"Canada","countryCode":"CA","status":"Operational","reactorType":"PHWR","capacityMw":795,"latitude":44.341,"longitude":-81.572,"operationalFrom":"1987-05-20","operationalTo":null},{"id":91,"name":"Brunsbuettel","country":"Germany","countryCode":"DE","status":"Shutdown","reactorType":"BWR","capacityMw":770,"latitude":53.891,"longitude":9.202,"operationalFrom":"1977-02-09","operationalTo":"2011-08-06"},{"id":92,"name":"Brunswick-1","country":"United States","countryCode":"US","status":"Operational","reactorType":"BWR","capacityMw":821,"latitude":33.958,"longitude":-78.007,"operationalFrom":"1977-03-18","operationalTo":null},{"id":93,"name":"Brunswick-2","country":"United States","countryCode":"US","status":"Operational","reactorType":"BWR","capacityMw":821,"latitude":33.958,"longitude":-78.007,"operationalFrom":"1975-11-03","operationalTo":null},{"id":94,"name":"Bugey-1","country":"France","countryCode":"FR","status":"Shutdown","reactorType":"GCR","capacityMw":540,"latitude":45.796,"longitude":5.268,"operationalFrom":"1972-07-01","operationalTo":"1994-05-27"},{"id":95,"name":"Bugey-2","country":"France","countryCode":"FR","status":"Operational","reactorType":"PWR","capacityMw":920,"latitude":45.796,"longitude":5.268,"operationalFrom":"1979-03-01","operationalTo":null},{"id":96,"name":"Bugey-3","country":"France","countryCode":"FR","status":"Operational","reactorType":"PWR","capacityMw":920,"latitude":45.798,"longitude":5.268,"operationalFrom":"1979-03-01","operationalTo":null},{"id":97,"name":"Bugey-4","country":"France","countryCode":"FR","status":"Operational","reactorType":"PWR","capacityMw":900,"latitude":45.8,"longitude":5.267,"operationalFrom":"1979-07-01","operationalTo":null},{"id":98,"name":"Bugey-5","country":"France","countryCode":"FR","status":"Operational","reactorType":"PWR","capacityMw":900,"latitude":45.8,"longitude":5.267,"operationalFrom":"1980-01-03","operationalTo":null},{"id":99,"name":"Bushehr-1","country":"Iran","countryCode":"IR","status":"Operational","reactorType":"PWR","capacityMw":915,"latitude":28.831,"longitude":50.887,"operationalFrom":"2013-09-23","operationalTo":null},{"id":100,"name":"Bushehr-2","country":"Iran","countryCode":"IR","status":"Under Construction","reactorType":"PWR","capacityMw":974,"latitude":28.8287,"longitude":50.8895,"operationalFrom":null,"operationalTo":null},{"id":101,"name":"Bushehr-3","country":"Iran","countryCode":"IR","status":"Planned","reactorType":null,"capacityMw":null,"latitude":28.8305,"longitude":50.8872,"operationalFrom":null,"operationalTo":null},{"id":102,"name":"Bushehr-4","country":"Iran","countryCode":"IR","status":"Planned","reactorType":null,"capacityMw":null,"latitude":28.8305,"longitude":50.8872,"operationalFrom":null,"operationalTo":null},{"id":103,"name":"Byron-1","country":"United States","countryCode":"US","status":"Operational","reactorType":"PWR","capacityMw":1120,"latitude":42.074,"longitude":-89.277,"operationalFrom":"1985-09-16","operationalTo":null},{"id":104,"name":"Byron-2","country":"United States","countryCode":"US","status":"Operational","reactorType":"PWR","capacityMw":1120,"latitude":42.074,"longitude":-89.277,"operationalFrom":"1987-08-02","operationalTo":null},{"id":105,"name":"Calder Hall-1","country":"United Kingdom","countryCode":"GB","status":"Shutdown","reactorType":"GCR","capacityMw":35,"latitude":54.42,"longitude":-3.491,"operationalFrom":"1956-10-01","operationalTo":"2003-03-31"},{"id":106,"name":"Calder Hall-2","country":"United Kingdom","countryCode":"GB","status":"Shutdown","reactorType":"GCR","capacityMw":35,"latitude":54.42,"longitude":-3.491,"operationalFrom":"1957-02-01","operationalTo":"2003-03-31"},{"id":107,"name":"Calder Hall-3","country":"United Kingdom","countryCode":"GB","status":"Shutdown","reactorType":"GCR","capacityMw":35,"latitude":54.42,"longitude":-3.491,"operationalFrom":"1958-05-01","operationalTo":"2003-03-31"},{"id":108,"name":"Calder Hall-4","country":"United Kingdom","countryCode":"GB","status":"Shutdown","reactorType":"GCR","capacityMw":35,"latitude":54.42,"longitude":-3.491,"operationalFrom":"1959-04-01","operationalTo":"2003-03-31"},{"id":109,"name":"Callaway-1","country":"United States","countryCode":"US","status":"Operational","reactorType":"PWR","capacityMw":1171,"latitude":38.763,"longitude":-91.781,"operationalFrom":"1984-12-19","operationalTo":null},{"id":110,"name":"Calvert Cliffs-1","country":"United States","countryCode":"US","status":"Operational","reactorType":"PWR","capacityMw":845,"latitude":38.435,"longitude":-76.439,"operationalFrom":"1975-05-08","operationalTo":null},{"id":111,"name":"Calvert Cliffs-2","country":"United States","countryCode":"US","status":"Operational","reactorType":"PWR","capacityMw":845,"latitude":38.435,"longitude":-76.439,"operationalFrom":"1977-04-01","operationalTo":null},{"id":112,"name":"Caorso","country":"Italy","countryCode":"IT","status":"Shutdown","reactorType":"BWR","capacityMw":840,"latitude":45.072,"longitude":9.872,"operationalFrom":"1981-12-01","operationalTo":"1990-07-01"},{"id":113,"name":"CAREM25","country":"Argentina","countryCode":"AR","status":"Under Construction","reactorType":"PWR","capacityMw":25,"latitude":-33.966667,"longitude":-59.211111,"operationalFrom":null,"operationalTo":null},{"id":114,"name":"Carolinas CVTR","country":"United States","countryCode":"US","status":"Shutdown","reactorType":"PHWR","capacityMw":17,"latitude":34.263,"longitude":-81.33,"operationalFrom":"1963-12-18","operationalTo":"1967-01-10"},{"id":115,"name":"Catawba-1","country":"United States","countryCode":"US","status":"Operational","reactorType":"PWR","capacityMw":1145,"latitude":35.053,"longitude":-81.071,"operationalFrom":"1985-06-29","operationalTo":null},{"id":116,"name":"Catawba-2","country":"United States","countryCode":"US","status":"Operational","reactorType":"PWR","capacityMw":1145,"latitude":35.053,"longitude":-81.071,"operationalFrom":"1986-08-19","operationalTo":null},{"id":117,"name":"Cattenom-1","country":"France","countryCode":"FR","status":"Operational","reactorType":"PWR","capacityMw":1300,"latitude":49.416,"longitude":6.217,"operationalFrom":"1987-04-01","operationalTo":null},{"id":118,"name":"Cattenom-2","country":"France","countryCode":"FR","status":"Operational","reactorType":"PWR","capacityMw":1300,"latitude":49.416,"longitude":6.217,"operationalFrom":"1988-02-01","operationalTo":null},{"id":119,"name":"Cattenom-3","country":"France","countryCode":"FR","status":"Operational","reactorType":"PWR","capacityMw":1300,"latitude":49.416,"longitude":6.217,"operationalFrom":"1991-02-01","operationalTo":null},{"id":120,"name":"Cattenom-4","country":"France","countryCode":"FR","status":"Operational","reactorType":"PWR","capacityMw":1300,"latitude":49.416,"longitude":6.217,"operationalFrom":"1992-01-01","operationalTo":null},{"id":121,"name":"CEFR (China Experimental Fast Reactor)","country":"China","countryCode":"CN","status":"Operational","reactorType":"FBR","capacityMw":20,"latitude":39.739,"longitude":116.03,"operationalFrom":null,"operationalTo":null},{"id":122,"name":"Cernavoda-1","country":"Romania","countryCode":"RO","status":"Operational","reactorType":"PHWR","capacityMw":650,"latitude":44.322,"longitude":28.061,"operationalFrom":"1996-12-02","operationalTo":null},{"id":123,"name":"Cernavoda-2","country":"Romania","countryCode":"RO","status":"Operational","reactorType":"PHWR","capacityMw":650,"latitude":44.322,"longitude":28.061,"operationalFrom":"2007-11-01","operationalTo":null},{"id":124,"name":"Cernavoda-3","country":"Romania","countryCode":"RO","status":"Suspended Construction","reactorType":"PHWR","capacityMw":655,"latitude":44.322,"longitude":28.061,"operationalFrom":null,"operationalTo":null},{"id":125,"name":"Changjiang-1","country":"China","countryCode":"CN","status":"Operational","reactorType":"PWR","capacityMw":601,"latitude":19.46075,"longitude":108.899917,"operationalFrom":"2015-12-25","operationalTo":null},{"id":126,"name":"Changjiang-2","country":"China","countryCode":"CN","status":"Operational","reactorType":"PWR","capacityMw":601,"latitude":19.46075,"longitude":108.899917,"operationalFrom":"2016-08-12","operationalTo":null},{"id":127,"name":"Chapelcross-1","country":"United Kingdom","countryCode":"GB","status":"Shutdown","reactorType":"GCR","capacityMw":35,"latitude":55.014,"longitude":-3.223,"operationalFrom":"1959-03-01","operationalTo":"2004-06-29"},{"id":128,"name":"Chapelcross-2","country":"United Kingdom","countryCode":"GB","status":"Shutdown","reactorType":"GCR","capacityMw":35,"latitude":55.014,"longitude":-3.223,"operationalFrom":"1959-08-01","operationalTo":"2004-06-29"},{"id":129,"name":"Chapelcross-3","country":"United Kingdom","countryCode":"GB","status":"Shutdown","reactorType":"GCR","capacityMw":35,"latitude":55.014,"longitude":-3.223,"operationalFrom":"1959-12-01","operationalTo":"2004-06-29"},{"id":130,"name":"Chapelcross-4","country":"United Kingdom","countryCode":"GB","status":"Shutdown","reactorType":"GCR","capacityMw":35,"latitude":55.014,"longitude":-3.223,"operationalFrom":"1960-03-01","operationalTo":"2004-06-29"},{"id":131,"name":"CHASNUPP-1","country":"Pakistan","countryCode":"PK","status":"Operational","reactorType":"PWR","capacityMw":300,"latitude":32.392,"longitude":71.463,"operationalFrom":"2000-09-15","operationalTo":null},{"id":132,"name":"CHASNUPP-2","country":"Pakistan","countryCode":"PK","status":"Operational","reactorType":"PWR","capacityMw":300,"latitude":32.392,"longitude":71.463,"operationalFrom":"2011-05-18","operationalTo":null},{"id":133,"name":"CHASNUPP-3","country":"Pakistan","countryCode":"PK","status":"Operational","reactorType":"PWR","capacityMw":315,"latitude":32.392,"longitude":71.465,"operationalFrom":"2016-12-06","operationalTo":null},{"id":134,"name":"CHASNUPP-4","country":"Pakistan","countryCode":"PK","status":"Operational","reactorType":"PWR","capacityMw":313,"latitude":32.391944,"longitude":71.461667,"operationalFrom":"2017-09-19","operationalTo":null},{"id":135,"name":"Chernobyl-1","country":"Ukraine","countryCode":"UA","status":"Shutdown","reactorType":"LWGR","capacityMw":925,"latitude":51.389,"longitude":30.103,"operationalFrom":"1978-05-27","operationalTo":"1996-11-30"},{"id":136,"name":"Chernobyl-2","country":"Ukraine","countryCode":"UA","status":"Shutdown","reactorType":"LWGR","capacityMw":925,"latitude":51.389,"longitude":30.103,"operationalFrom":"1979-05-28","operationalTo":"1991-10-11"},{"id":137,"name":"Chernobyl-3","country":"Ukraine","countryCode":"UA","status":"Shutdown","reactorType":"LWGR","capacityMw":925,"latitude":51.389,"longitude":30.103,"operationalFrom":"1982-06-08","operationalTo":"2000-12-15"},{"id":138,"name":"Chernobyl-4","country":"Ukraine","countryCode":"UA","status":"Shutdown","reactorType":"LWGR","capacityMw":925,"latitude":51.389,"longitude":30.103,"operationalFrom":"1984-03-26","operationalTo":"1986-04-26"},{"id":139,"name":"Chin Shan-1","country":"Taiwan","countryCode":"TW","status":"Shutdown","reactorType":"BWR","capacityMw":604,"latitude":25.292,"longitude":121.567,"operationalFrom":"1978-12-10","operationalTo":"2018-12-06"},{"id":140,"name":"Chin Shan-2","country":"Taiwan","countryCode":"TW","status":"Shutdown","reactorType":"BWR","capacityMw":604,"latitude":25.292,"longitude":121.567,"operationalFrom":"1979-07-15","operationalTo":"2019-07-16"},{"id":141,"name":"Chinon-A1","country":"France","countryCode":"FR","status":"Shutdown","reactorType":"GCR","capacityMw":68,"latitude":47.232,"longitude":0.167,"operationalFrom":"1964-02-01","operationalTo":"1973-04-16"},{"id":142,"name":"Chinon-A2","country":"France","countryCode":"FR","status":"Shutdown","reactorType":"GCR","capacityMw":170,"latitude":47.232,"longitude":0.167,"operationalFrom":"1965-02-24","operationalTo":"1985-06-14"},{"id":143,"name":"Chinon-A3","country":"France","countryCode":"FR","status":"Shutdown","reactorType":"GCR","capacityMw":480,"latitude":47.232,"longitude":0.167,"operationalFrom":"1966-08-04","operationalTo":"1990-06-15"},{"id":144,"name":"Chinon-B1","country":"France","countryCode":"FR","status":"Operational","reactorType":"PWR","capacityMw":870,"latitude":47.232,"longitude":0.167,"operationalFrom":"1984-02-01","operationalTo":null},{"id":145,"name":"Chinon-B2","country":"France","countryCode":"FR","status":"Operational","reactorType":"PWR","capacityMw":870,"latitude":47.232,"longitude":0.167,"operationalFrom":"1984-08-01","operationalTo":null},{"id":146,"name":"Chinon-B3","country":"France","countryCode":"FR","status":"Operational","reactorType":"PWR","capacityMw":905,"latitude":47.232,"longitude":0.167,"operationalFrom":"1987-03-04","operationalTo":null},{"id":147,"name":"Chinon-B4","country":"France","countryCode":"FR","status":"Operational","reactorType":"PWR","capacityMw":905,"latitude":47.232,"longitude":0.167,"operationalFrom":"1988-04-01","operationalTo":null},{"id":148,"name":"Chooz-A","country":"France","countryCode":"FR","status":"Shutdown","reactorType":"PWR","capacityMw":280,"latitude":50.086,"longitude":4.792,"operationalFrom":"1967-04-15","operationalTo":"1991-10-30"},{"id":149,"name":"Chooz-B1","country":"France","countryCode":"FR","status":"Operational","reactorType":"PWR","capacityMw":1455,"latitude":50.086,"longitude":4.792,"operationalFrom":"2000-05-15","operationalTo":null},{"id":150,"name":"Chooz-B2","country":"France","countryCode":"FR","status":"Operational","reactorType":"PWR","capacityMw":1455,"latitude":50.086,"longitude":4.792,"operationalFrom":"2000-09-29","operationalTo":null},{"id":151,"name":"Civaux-1","country":"France","countryCode":"FR","status":"Operational","reactorType":"PWR","capacityMw":1450,"latitude":46.457,"longitude":0.654,"operationalFrom":"2002-01-29","operationalTo":null},{"id":152,"name":"Civaux-2","country":"France","countryCode":"FR","status":"Operational","reactorType":"PWR","capacityMw":1450,"latitude":46.457,"longitude":0.654,"operationalFrom":"2002-04-23","operationalTo":null},{"id":153,"name":"Clinton-1","country":"United States","countryCode":"US","status":"Operational","reactorType":"BWR","capacityMw":950,"latitude":40.172,"longitude":-88.834,"operationalFrom":"1987-11-24","operationalTo":null},{"id":154,"name":"Cofrentes","country":"Spain","countryCode":"ES","status":"Operational","reactorType":"BWR","capacityMw":939,"latitude":39.216,"longitude":-1.051,"operationalFrom":"1985-03-11","operationalTo":null},{"id":155,"name":"Columbia (WNP-2)","country":"United States","countryCode":"US","status":"Operational","reactorType":"BWR","capacityMw":1100,"latitude":46.471,"longitude":-119.333,"operationalFrom":"1984-12-13","operationalTo":null},{"id":156,"name":"Comanche Peak-1","country":"United States","countryCode":"US","status":"Operational","reactorType":"PWR","capacityMw":1150,"latitude":32.301,"longitude":-97.787,"operationalFrom":"1990-08-13","operationalTo":null},{"id":157,"name":"Comanche Peak-2","country":"United States","countryCode":"US","status":"Operational","reactorType":"PWR","capacityMw":1150,"latitude":32.301,"longitude":-97.787,"operationalFrom":"1993-08-03","operationalTo":null},{"id":158,"name":"Cooper","country":"United States","countryCode":"US","status":"Operational","reactorType":"BWR","capacityMw":778,"latitude":40.361,"longitude":-95.643,"operationalFrom":"1974-07-01","operationalTo":null},{"id":159,"name":"Cruas-1","country":"France","countryCode":"FR","status":"Operational","reactorType":"PWR","capacityMw":880,"latitude":44.634,"longitude":4.757,"operationalFrom":"1984-04-02","operationalTo":null},{"id":160,"name":"Cruas-2","country":"France","countryCode":"FR","status":"Operational","reactorType":"PWR","capacityMw":915,"latitude":44.634,"longitude":4.757,"operationalFrom":"1985-04-01","operationalTo":null},{"id":161,"name":"Cruas-3","country":"France","countryCode":"FR","status":"Operational","reactorType":"PWR","capacityMw":880,"latitude":44.634,"longitude":4.757,"operationalFrom":"1984-09-10","operationalTo":null},{"id":162,"name":"Cruas-4","country":"France","countryCode":"FR","status":"Operational","reactorType":"PWR","capacityMw":880,"latitude":44.634,"longitude":4.757,"operationalFrom":"1985-02-11","operationalTo":null},{"id":163,"name":"Crystal River-3","country":"United States","countryCode":"US","status":"Shutdown","reactorType":"PWR","capacityMw":825,"latitude":28.966,"longitude":-82.697,"operationalFrom":"1977-03-13","operationalTo":"2013-02-05"},{"id":164,"name":"Dampierre-1","country":"France","countryCode":"FR","status":"Operational","reactorType":"PWR","capacityMw":890,"latitude":47.732,"longitude":2.513,"operationalFrom":"1980-09-10","operationalTo":null},{"id":165,"name":"Dampierre-2","country":"France","countryCode":"FR","status":"Operational","reactorType":"PWR","capacityMw":890,"latitude":47.732,"longitude":2.513,"operationalFrom":"1981-02-16","operationalTo":null},{"id":166,"name":"Dampierre-3","country":"France","countryCode":"FR","status":"Operational","reactorType":"PWR","capacityMw":890,"latitude":47.732,"longitude":2.513,"operationalFrom":"1981-05-27","operationalTo":null},{"id":167,"name":"Dampierre-4","country":"France","countryCode":"FR","status":"Operational","reactorType":"PWR","capacityMw":890,"latitude":47.732,"longitude":2.513,"operationalFrom":"1981-11-20","operationalTo":null},{"id":168,"name":"Darkhovin","country":"Iran","countryCode":"IR","status":"Unknown","reactorType":"PWR","capacityMw":null,"latitude":30.707778,"longitude":48.38,"operationalFrom":null,"operationalTo":null},{"id":169,"name":"Darlington-1","country":"Canada","countryCode":"CA","status":"Operational","reactorType":"PHWR","capacityMw":881,"latitude":43.867,"longitude":-78.724,"operationalFrom":"1992-11-14","operationalTo":null},{"id":170,"name":"Darlington-2","country":"Canada","countryCode":"CA","status":"Operational","reactorType":"PHWR","capacityMw":881,"latitude":43.867,"longitude":-78.724,"operationalFrom":"1990-10-09","operationalTo":null},{"id":171,"name":"Darlington-3","country":"Canada","countryCode":"CA","status":"Operational","reactorType":"PHWR","capacityMw":881,"latitude":43.867,"longitude":-78.724,"operationalFrom":"1993-02-14","operationalTo":null},{"id":172,"name":"Darlington-4","country":"Canada","countryCode":"CA","status":"Operational","reactorType":"PHWR","capacityMw":881,"latitude":43.867,"longitude":-78.724,"operationalFrom":"1993-06-14","operationalTo":null},{"id":173,"name":"Darlington-5","country":"Canada","countryCode":"CA","status":"Planned","reactorType":"PHWR","capacityMw":null,"latitude":43.8644,"longitude":-78.7244,"operationalFrom":null,"operationalTo":null},{"id":174,"name":"Darlington-6","country":"Canada","countryCode":"CA","status":"Planned","reactorType":"PHWR","capacityMw":null,"latitude":43.8633,"longitude":-78.7244,"operationalFrom":null,"operationalTo":null},{"id":175,"name":"Davis Besse-1","country":"United States","countryCode":"US","status":"Operational","reactorType":"PWR","capacityMw":906,"latitude":41.597,"longitude":-83.092,"operationalFrom":"1978-07-31","operationalTo":null},{"id":176,"name":"Daya Bay-1 (Guangdong-1)","country":"China","countryCode":"CN","status":"Operational","reactorType":"PWR","capacityMw":930,"latitude":22.599,"longitude":114.544,"operationalFrom":"1994-02-01","operationalTo":null},{"id":177,"name":"Daya Bay-2 (Guangdong-2)","country":"China","countryCode":"CN","status":"Operational","reactorType":"PWR","capacityMw":930,"latitude":22.599,"longitude":114.544,"operationalFrom":"1994-05-06","operationalTo":null},{"id":178,"name":"Diablo Canyon-1","country":"United States","countryCode":"US","status":"Operational","reactorType":"PWR","capacityMw":1084,"latitude":35.212,"longitude":-120.854,"operationalFrom":"1985-05-07","operationalTo":null},{"id":179,"name":"Diablo Canyon-2","country":"United States","countryCode":"US","status":"Operational","reactorType":"PWR","capacityMw":1106,"latitude":35.212,"longitude":-120.854,"operationalFrom":"1986-03-13","operationalTo":null},{"id":180,"name":"Doel-1","country":"Belgium","countryCode":"BE","status":"Operational","reactorType":"PWR","capacityMw":392,"latitude":51.323,"longitude":4.259,"operationalFrom":"1975-02-15","operationalTo":null},{"id":181,"name":"Doel-2","country":"Belgium","countryCode":"BE","status":"Operational","reactorType":"PWR","capacityMw":445,"latitude":51.323,"longitude":4.259,"operationalFrom":"1975-12-01","operationalTo":null},{"id":182,"name":"Doel-3","country":"Belgium","countryCode":"BE","status":"Shutdown","reactorType":"PWR","capacityMw":890,"latitude":51.323,"longitude":4.259,"operationalFrom":"1982-10-01","operationalTo":"2022-09-23"},{"id":183,"name":"Doel-4","country":"Belgium","countryCode":"BE","status":"Operational","reactorType":"PWR","capacityMw":1000,"latitude":51.323,"longitude":4.259,"operationalFrom":"1985-07-01","operationalTo":null},{"id":184,"name":"Donald Cook-1","country":"United States","countryCode":"US","status":"Operational","reactorType":"PWR","capacityMw":1030,"latitude":41.975,"longitude":-86.564,"operationalFrom":"1975-08-28","operationalTo":null},{"id":185,"name":"Donald Cook-2","country":"United States","countryCode":"US","status":"Operational","reactorType":"PWR","capacityMw":1100,"latitude":41.975,"longitude":-86.564,"operationalFrom":"1978-07-01","operationalTo":null},{"id":186,"name":"Douglas Point","country":"Canada","countryCode":"CA","status":"Shutdown","reactorType":"PHWR","capacityMw":203,"latitude":44.326,"longitude":-81.601,"operationalFrom":"1968-09-26","operationalTo":"1984-05-04"},{"id":187,"name":"Dounreay DFR","country":"United Kingdom","countryCode":"GB","status":"Shutdown","reactorType":"FBR","capacityMw":14,"latitude":58.577,"longitude":-3.745,"operationalFrom":"1962-10-01","operationalTo":"1977-03-01"},{"id":188,"name":"Dounreay PFR","country":"United Kingdom","countryCode":"GB","status":"Shutdown","reactorType":"FBR","capacityMw":234,"latitude":58.577,"longitude":-3.745,"operationalFrom":"1976-07-01","operationalTo":"1994-03-31"},{"id":189,"name":"Dresden-1","country":"United States","countryCode":"US","status":"Shutdown","reactorType":"BWR","capacityMw":192,"latitude":41.353,"longitude":-88.349,"operationalFrom":"1960-07-04","operationalTo":"1978-10-31"},{"id":190,"name":"Dresden-2","country":"United States","countryCode":"US","status":"Operational","reactorType":"BWR","capacityMw":794,"latitude":41.353,"longitude":-88.349,"operationalFrom":"1970-06-09","operationalTo":null},{"id":191,"name":"Dresden-3","country":"United States","countryCode":"US","status":"Operational","reactorType":"BWR","capacityMw":794,"latitude":41.353,"longitude":-88.349,"operationalFrom":"1971-11-16","operationalTo":null},{"id":192,"name":"Duane Arnold-1","country":"United States","countryCode":"US","status":"Shutdown","reactorType":"BWR","capacityMw":601,"latitude":42.101,"longitude":-91.776,"operationalFrom":"1975-02-01","operationalTo":"2020-10-12"},{"id":193,"name":"Dukovany-1","country":"Czechia","countryCode":"CZ","status":"Operational","reactorType":"PWR","capacityMw":420,"latitude":49.089,"longitude":16.149,"operationalFrom":"1985-05-03","operationalTo":null},{"id":194,"name":"Dukovany-2","country":"Czechia","countryCode":"CZ","status":"Operational","reactorType":"PWR","capacityMw":420,"latitude":49.089,"longitude":16.149,"operationalFrom":"1986-03-21","operationalTo":null},{"id":195,"name":"Dukovany-3","country":"Czechia","countryCode":"CZ","status":"Operational","reactorType":"PWR","capacityMw":420,"latitude":49.089,"longitude":16.149,"operationalFrom":"1986-12-20","operationalTo":null},{"id":196,"name":"Dukovany-4","country":"Czechia","countryCode":"CZ","status":"Operational","reactorType":"PWR","capacityMw":420,"latitude":49.089,"longitude":16.149,"operationalFrom":"1987-07-19","operationalTo":null},{"id":197,"name":"Dungeness-A1","country":"United Kingdom","countryCode":"GB","status":"Shutdown","reactorType":"GCR","capacityMw":275,"latitude":50.914,"longitude":0.962,"operationalFrom":"1965-10-28","operationalTo":"2006-12-31"},{"id":198,"name":"Dungeness-A2","country":"United Kingdom","countryCode":"GB","status":"Shutdown","reactorType":"GCR","capacityMw":275,"latitude":50.914,"longitude":0.962,"operationalFrom":"1965-12-30","operationalTo":"2006-12-31"},{"id":199,"name":"Dungeness-B1","country":"United Kingdom","countryCode":"GB","status":"Shutdown","reactorType":"GCR","capacityMw":607,"latitude":50.914,"longitude":0.962,"operationalFrom":"1985-04-01","operationalTo":"2021-06-07"},{"id":200,"name":"Dungeness-B2","country":"United Kingdom","countryCode":"GB","status":"Shutdown","reactorType":"GCR","capacityMw":607,"latitude":50.914,"longitude":0.962,"operationalFrom":"1989-04-01","operationalTo":"2021-06-07"},{"id":201,"name":"El Dabaa-1","country":"Egypt","countryCode":"EG","status":"Under Construction","reactorType":"PWR","capacityMw":1100,"latitude":31.044167,"longitude":28.497778,"operationalFrom":null,"operationalTo":null},{"id":202,"name":"EL-4 (Monts D'Arree)","country":"France","countryCode":"FR","status":"Shutdown","reactorType":"HWGCR","capacityMw":70,"latitude":48.35,"longitude":-3.866667,"operationalFrom":"1968-06-01","operationalTo":"1985-07-31"},{"id":203,"name":"Elk River","country":"United States","countryCode":"US","status":"Shutdown","reactorType":"BWR","capacityMw":22,"latitude":45.297,"longitude":-93.557,"operationalFrom":"1964-07-01","operationalTo":"1968-02-01"},{"id":204,"name":"Embalse","country":"Argentina","countryCode":"AR","status":"Operational","reactorType":"PHWR","capacityMw":608,"latitude":-32.232,"longitude":-64.442,"operationalFrom":"1984-01-19","operationalTo":null},{"id":205,"name":"Emsland","country":"Germany","countryCode":"DE","status":"Shutdown","reactorType":"PWR","capacityMw":1242,"latitude":52.471,"longitude":7.322,"operationalFrom":"1988-06-20","operationalTo":"2023-04-15"},{"id":206,"name":"Enrico Fermi","country":"Italy","countryCode":"IT","status":"Shutdown","reactorType":"PWR","capacityMw":247,"latitude":45.183333,"longitude":8.283333,"operationalFrom":"1965-01-01","operationalTo":"1990-07-01"},{"id":207,"name":"Enrico Fermi-1","country":"United States","countryCode":"US","status":"Shutdown","reactorType":"FBR","capacityMw":60,"latitude":41.96,"longitude":-83.257,"operationalFrom":"1966-08-07","operationalTo":"1972-11-29"},{"id":208,"name":"Enrico Fermi-2","country":"United States","countryCode":"US","status":"Operational","reactorType":"BWR","capacityMw":1093,"latitude":41.96,"longitude":-83.257,"operationalFrom":"1988-01-23","operationalTo":null},{"id":209,"name":"Fangchenggang-1","country":"China","countryCode":"CN","status":"Operational","reactorType":"PWR","capacityMw":1000,"latitude":21.6,"longitude":108.3,"operationalFrom":"2016-01-01","operationalTo":null},{"id":210,"name":"Fangchenggang-2","country":"China","countryCode":"CN","status":"Operational","reactorType":"PWR","capacityMw":1000,"latitude":21.6,"longitude":108.3,"operationalFrom":"2016-10-01","operationalTo":null},{"id":211,"name":"Fangjiashan-1","country":"China","countryCode":"CN","status":"Operational","reactorType":"PWR","capacityMw":1000,"latitude":30.416,"longitude":120.951,"operationalFrom":"2014-12-15","operationalTo":null},{"id":212,"name":"Fangjiashan-2","country":"China","countryCode":"CN","status":"Operational","reactorType":"PWR","capacityMw":1000,"latitude":30.416,"longitude":120.951,"operationalFrom":"2015-02-12","operationalTo":null},{"id":213,"name":"Farley-1","country":"United States","countryCode":"US","status":"Operational","reactorType":"PWR","capacityMw":829,"latitude":31.223,"longitude":-85.115,"operationalFrom":"1977-12-01","operationalTo":null},{"id":214,"name":"Farley-2","country":"United States","countryCode":"US","status":"Operational","reactorType":"PWR","capacityMw":829,"latitude":31.223,"longitude":-85.115,"operationalFrom":"1981-07-30","operationalTo":null},{"id":215,"name":"Fessenheim-1","country":"France","countryCode":"FR","status":"Shutdown","reactorType":"PWR","capacityMw":880,"latitude":47.903,"longitude":7.564,"operationalFrom":"1978-01-01","operationalTo":"2020-02-22"},{"id":216,"name":"Fessenheim-2","country":"France","countryCode":"FR","status":"Shutdown","reactorType":"PWR","capacityMw":880,"latitude":47.903,"longitude":7.564,"operationalFrom":"1978-04-01","operationalTo":"2020-06-30"},{"id":217,"name":"FitzPatrick","country":"United States","countryCode":"US","status":"Operational","reactorType":"BWR","capacityMw":821,"latitude":43.521,"longitude":-76.403,"operationalFrom":"1975-07-28","operationalTo":null},{"id":218,"name":"Flamanville-1","country":"France","countryCode":"FR","status":"Operational","reactorType":"PWR","capacityMw":1330,"latitude":49.537,"longitude":-1.881,"operationalFrom":"1986-12-01","operationalTo":null},{"id":219,"name":"Flamanville-2","country":"France","countryCode":"FR","status":"Operational","reactorType":"PWR","capacityMw":1330,"latitude":49.537,"longitude":-1.881,"operationalFrom":"1987-03-09","operationalTo":null},{"id":220,"name":"Flamanville-3","country":"France","countryCode":"FR","status":"Under Construction","reactorType":"PWR","capacityMw":1630,"latitude":49.537,"longitude":-1.881,"operationalFrom":null,"operationalTo":null},{"id":221,"name":"Forsmark-1","country":"Sweden","countryCode":"SE","status":"Operational","reactorType":"BWR","capacityMw":900,"latitude":60.405,"longitude":18.168,"operationalFrom":"1980-12-10","operationalTo":null},{"id":222,"name":"Forsmark-2","country":"Sweden","countryCode":"SE","status":"Operational","reactorType":"BWR","capacityMw":900,"latitude":60.405,"longitude":18.168,"operationalFrom":"1981-07-07","operationalTo":null},{"id":223,"name":"Forsmark-3","country":"Sweden","countryCode":"SE","status":"Operational","reactorType":"BWR","capacityMw":1050,"latitude":60.405,"longitude":18.168,"operationalFrom":"1985-08-18","operationalTo":null},{"id":224,"name":"Fort Calhoun-1","country":"United States","countryCode":"US","status":"Shutdown","reactorType":"PWR","capacityMw":478,"latitude":41.52,"longitude":-96.076,"operationalFrom":"1973-09-26","operationalTo":"2016-10-24"},{"id":225,"name":"Fort St. Vrain","country":"United States","countryCode":"US","status":"Shutdown","reactorType":"HTGR","capacityMw":330,"latitude":40.244,"longitude":-104.874,"operationalFrom":"1979-07-01","operationalTo":"1989-08-29"},{"id":226,"name":"Fugen ATR","country":"Japan","countryCode":"JP","status":"Shutdown","reactorType":"HWLWR","capacityMw":148,"latitude":35.751,"longitude":136.02,"operationalFrom":"1979-03-20","operationalTo":"2003-03-29"},{"id":227,"name":"Fukushima Daiichi-1","country":"Japan","countryCode":"JP","status":"Shutdown","reactorType":"BWR","capacityMw":439,"latitude":37.423,"longitude":141.032,"operationalFrom":"1971-03-26","operationalTo":"2011-05-19"},{"id":228,"name":"Fukushima Daiichi-2","country":"Japan","countryCode":"JP","status":"Shutdown","reactorType":"BWR","capacityMw":760,"latitude":37.423,"longitude":141.032,"operationalFrom":"1974-07-18","operationalTo":"2011-05-19"},{"id":229,"name":"Fukushima Daiichi-3","country":"Japan","countryCode":"JP","status":"Shutdown","reactorType":"BWR","capacityMw":760,"latitude":37.423,"longitude":141.032,"operationalFrom":"1976-03-27","operationalTo":"2011-05-19"},{"id":230,"name":"Fukushima Daiichi-4","country":"Japan","countryCode":"JP","status":"Shutdown","reactorType":"BWR","capacityMw":760,"latitude":37.423,"longitude":141.032,"operationalFrom":"1978-10-12","operationalTo":"2011-05-19"},{"id":231,"name":"Fukushima Daiichi-5","country":"Japan","countryCode":"JP","status":"Shutdown","reactorType":"BWR","capacityMw":760,"latitude":37.423,"longitude":141.032,"operationalFrom":"1978-04-18","operationalTo":"2013-12-17"},{"id":232,"name":"Fukushima Daiichi-6","country":"Japan","countryCode":"JP","status":"Shutdown","reactorType":"BWR","capacityMw":1067,"latitude":37.423,"longitude":141.032,"operationalFrom":"1979-10-24","operationalTo":"2013-12-17"},{"id":233,"name":"Fukushima Daini-1","country":"Japan","countryCode":"JP","status":"Shutdown","reactorType":"BWR","capacityMw":1067,"latitude":37.315,"longitude":141.024,"operationalFrom":"1982-04-20","operationalTo":"2019-09-30"},{"id":234,"name":"Fukushima Daini-2","country":"Japan","countryCode":"JP","status":"Shutdown","reactorType":"BWR","capacityMw":1067,"latitude":37.315,"longitude":141.024,"operationalFrom":"1984-02-03","operationalTo":"2019-09-30"},{"id":235,"name":"Fukushima Daini-3","country":"Japan","countryCode":"JP","status":"Shutdown","reactorType":"BWR","capacityMw":1067,"latitude":37.315,"longitude":141.024,"operationalFrom":"1985-06-21","operationalTo":"2019-09-30"},{"id":236,"name":"Fukushima Daini-4","country":"Japan","countryCode":"JP","status":"Shutdown","reactorType":"BWR","capacityMw":1067,"latitude":37.315,"longitude":141.024,"operationalFrom":"1987-08-25","operationalTo":"2019-09-30"},{"id":237,"name":"Fuqing-1","country":"China","countryCode":"CN","status":"Operational","reactorType":"PWR","capacityMw":1000,"latitude":25.443,"longitude":119.453,"operationalFrom":"2014-11-22","operationalTo":null},{"id":238,"name":"Fuqing-2","country":"China","countryCode":"CN","status":"Operational","reactorType":"PWR","capacityMw":1000,"latitude":25.443,"longitude":119.453,"operationalFrom":"2015-10-16","operationalTo":null},{"id":239,"name":"Fuqing-3","country":"China","countryCode":"CN","status":"Operational","reactorType":"PWR","capacityMw":1000,"latitude":25.720278,"longitude":119.383889,"operationalFrom":"2016-10-24","operationalTo":null},{"id":240,"name":"Fuqing-4","country":"China","countryCode":"CN","status":"Operational","reactorType":"PWR","capacityMw":1000,"latitude":25.720278,"longitude":119.383889,"operationalFrom":"2017-09-17","operationalTo":null},{"id":241,"name":"Fuqing-5","country":"China","countryCode":"CN","status":"Operational","reactorType":"PWR","capacityMw":1075,"latitude":25.720278,"longitude":119.383889,"operationalFrom":"2021-01-30","operationalTo":null},{"id":242,"name":"Fuqing-6","country":"China","countryCode":"CN","status":"Operational","reactorType":"PWR","capacityMw":1075,"latitude":25.720278,"longitude":119.383889,"operationalFrom":"2022-03-25","operationalTo":null},{"id":243,"name":"G-2 (Marcoule)","country":"France","countryCode":"FR","status":"Shutdown","reactorType":"GCR","capacityMw":36,"latitude":44.142,"longitude":4.713,"operationalFrom":"1959-04-22","operationalTo":"1980-02-02"},{"id":244,"name":"G-3 (Marcoule)","country":"France","countryCode":"FR","status":"Shutdown","reactorType":"GCR","capacityMw":36,"latitude":44.142,"longitude":4.713,"operationalFrom":"1960-04-04","operationalTo":"1984-06-20"},{"id":245,"name":"Garigliano","country":"Italy","countryCode":"IT","status":"Shutdown","reactorType":"BWR","capacityMw":150,"latitude":41.258,"longitude":13.835,"operationalFrom":"1964-06-01","operationalTo":"1982-03-01"},{"id":246,"name":"GE Vallecitos","country":"United States","countryCode":"US","status":"Shutdown","reactorType":"BWR","capacityMw":24,"latitude":37.613056,"longitude":-121.84,"operationalFrom":"1957-10-19","operationalTo":"1963-12-09"},{"id":247,"name":"Genkai-1","country":"Japan","countryCode":"JP","status":"Shutdown","reactorType":"PWR","capacityMw":529,"latitude":33.518,"longitude":129.837,"operationalFrom":"1975-10-15","operationalTo":"2015-04-27"},{"id":248,"name":"Genkai-2","country":"Japan","countryCode":"JP","status":"Shutdown","reactorType":"PWR","capacityMw":529,"latitude":33.518,"longitude":129.837,"operationalFrom":"1981-03-30","operationalTo":"2019-04-09"},{"id":249,"name":"Genkai-3","country":"Japan","countryCode":"JP","status":"Operational","reactorType":"PWR","capacityMw":1127,"latitude":33.518,"longitude":129.837,"operationalFrom":"1994-03-18","operationalTo":null},{"id":250,"name":"Genkai-4","country":"Japan","countryCode":"JP","status":"Operational","reactorType":"PWR","capacityMw":1127,"latitude":33.518,"longitude":129.837,"operationalFrom":"1997-07-25","operationalTo":null},{"id":251,"name":"Gentilly-1 (Demo)","country":"Canada","countryCode":"CA","status":"Shutdown","reactorType":"HWLWR","capacityMw":250,"latitude":46.395,"longitude":-72.357,"operationalFrom":"1972-05-01","operationalTo":"1977-06-01"},{"id":252,"name":"Gentilly-2","country":"Canada","countryCode":"CA","status":"Shutdown","reactorType":"PHWR","capacityMw":645,"latitude":46.395,"longitude":-72.357,"operationalFrom":"1983-10-01","operationalTo":"2012-12-28"},{"id":253,"name":"Dodewaard","country":"Netherlands","countryCode":"NL","status":"Shutdown","reactorType":"BWR","capacityMw":54,"latitude":51.899,"longitude":5.687,"operationalFrom":"1969-03-26","operationalTo":"1997-03-26"},{"id":254,"name":"Goesgen","country":"Switzerland","countryCode":"CH","status":"Operational","reactorType":"PWR","capacityMw":920,"latitude":47.366,"longitude":7.969,"operationalFrom":"1979-11-01","operationalTo":null},{"id":255,"name":"Golfech-1","country":"France","countryCode":"FR","status":"Operational","reactorType":"PWR","capacityMw":1310,"latitude":44.105,"longitude":0.845,"operationalFrom":"1991-02-01","operationalTo":null},{"id":256,"name":"Golfech-2","country":"France","countryCode":"FR","status":"Operational","reactorType":"PWR","capacityMw":1310,"latitude":44.105,"longitude":0.845,"operationalFrom":"1994-03-04","operationalTo":null},{"id":257,"name":"Grafenrheinfeld","country":"Germany","countryCode":"DE","status":"Shutdown","reactorType":"PWR","capacityMw":1225,"latitude":49.984,"longitude":10.186,"operationalFrom":"1982-06-17","operationalTo":"2015-06-27"},{"id":258,"name":"Grand Gulf-1","country":"United States","countryCode":"US","status":"Operational","reactorType":"BWR","capacityMw":1250,"latitude":32.007,"longitude":-91.045,"operationalFrom":"1985-07-01","operationalTo":null},{"id":259,"name":"Gravelines-1","country":"France","countryCode":"FR","status":"Operational","reactorType":"PWR","capacityMw":910,"latitude":51.014,"longitude":2.138,"operationalFrom":"1980-11-25","operationalTo":null},{"id":260,"name":"Gravelines-2","country":"France","countryCode":"FR","status":"Operational","reactorType":"PWR","capacityMw":910,"latitude":51.014,"longitude":2.138,"operationalFrom":"1980-12-01","operationalTo":null},{"id":261,"name":"Gravelines-3","country":"France","countryCode":"FR","status":"Operational","reactorType":"PWR","capacityMw":910,"latitude":51.014,"longitude":2.138,"operationalFrom":"1981-06-01","operationalTo":null},{"id":262,"name":"Gravelines-4","country":"France","countryCode":"FR","status":"Operational","reactorType":"PWR","capacityMw":910,"latitude":51.014,"longitude":2.138,"operationalFrom":"1981-10-01","operationalTo":null},{"id":263,"name":"Gravelines-5","country":"France","countryCode":"FR","status":"Operational","reactorType":"PWR","capacityMw":910,"latitude":51.014,"longitude":2.138,"operationalFrom":"1985-01-15","operationalTo":null},{"id":264,"name":"Gravelines-6","country":"France","countryCode":"FR","status":"Operational","reactorType":"PWR","capacityMw":910,"latitude":51.014,"longitude":2.138,"operationalFrom":"1985-10-25","operationalTo":null},{"id":265,"name":"Greifswald-1","country":"Germany","countryCode":"DE","status":"Shutdown","reactorType":"PWR","capacityMw":440,"latitude":54.143,"longitude":13.668,"operationalFrom":"1974-07-12","operationalTo":"1990-12-18"},{"id":266,"name":"Greifswald-2","country":"Germany","countryCode":"DE","status":"Shutdown","reactorType":"PWR","capacityMw":408,"latitude":54.143,"longitude":13.668,"operationalFrom":"1975-04-16","operationalTo":"1990-02-14"},{"id":267,"name":"Greifswald-3","country":"Germany","countryCode":"DE","status":"Shutdown","reactorType":"PWR","capacityMw":408,"latitude":54.143,"longitude":13.668,"operationalFrom":"1978-05-01","operationalTo":"1990-02-28"},{"id":268,"name":"Greifswald-4","country":"Germany","countryCode":"DE","status":"Shutdown","reactorType":"PWR","capacityMw":408,"latitude":54.143,"longitude":13.668,"operationalFrom":"1979-11-01","operationalTo":"1990-06-02"},{"id":269,"name":"Greifswald-5","country":"Germany","countryCode":"DE","status":"Shutdown","reactorType":"PWR","capacityMw":408,"latitude":54.143,"longitude":13.668,"operationalFrom":"1989-11-01","operationalTo":"1989-11-24"},{"id":270,"name":"Grohnde","country":"Germany","countryCode":"DE","status":"Shutdown","reactorType":"PWR","capacityMw":1289,"latitude":52.033,"longitude":9.412,"operationalFrom":"1985-02-01","operationalTo":"2021-12-31"},{"id":271,"name":"Grosswelzheim","country":"Germany","countryCode":"DE","status":"Decommissioning Completed","reactorType":"BWR","capacityMw":23,"latitude":50.055,"longitude":8.985,"operationalFrom":null,"operationalTo":"1971-07-20"},{"id":272,"name":"Gundremmingen-A","country":"Germany","countryCode":"DE","status":"Shutdown","reactorType":"BWR","capacityMw":237,"latitude":48.513,"longitude":10.401,"operationalFrom":"1967-04-12","operationalTo":"1977-01-13"},{"id":273,"name":"Gundremmingen-B","country":"Germany","countryCode":"DE","status":"Shutdown","reactorType":"BWR","capacityMw":1244,"latitude":48.513,"longitude":10.401,"operationalFrom":"1984-07-19","operationalTo":"2017-12-31"},{"id":274,"name":"Gundremmingen-C","country":"Germany","countryCode":"DE","status":"Shutdown","reactorType":"BWR","capacityMw":1249,"latitude":48.513,"longitude":10.401,"operationalFrom":"1985-01-18","operationalTo":"2021-12-31"},{"id":275,"name":"H. B. Robinson-2","country":"United States","countryCode":"US","status":"Operational","reactorType":"PWR","capacityMw":700,"latitude":34.402,"longitude":-80.158,"operationalFrom":"1971-03-07","operationalTo":null},{"id":276,"name":"Haddam Neck","country":"United States","countryCode":"US","status":"Shutdown","reactorType":"PWR","capacityMw":582,"latitude":41.483,"longitude":-72.5,"operationalFrom":"1968-01-01","operationalTo":"1996-12-05"},{"id":277,"name":"Haiyang-1","country":"China","countryCode":"CN","status":"Operational","reactorType":"PWR","capacityMw":1126,"latitude":36.704,"longitude":121.382,"operationalFrom":"2018-10-22","operationalTo":null},{"id":278,"name":"Haiyang-2","country":"China","countryCode":"CN","status":"Operational","reactorType":"PWR","capacityMw":1126,"latitude":36.704,"longitude":121.382,"operationalFrom":"2019-01-09","operationalTo":null},{"id":279,"name":"Haiyang-3","country":"China","countryCode":"CN","status":"Under Construction","reactorType":"PWR","capacityMw":1161,"latitude":36.704,"longitude":121.382,"operationalFrom":null,"operationalTo":null},{"id":280,"name":"Haiyang-4","country":"China","countryCode":"CN","status":"Under Construction","reactorType":"PWR","capacityMw":1161,"latitude":36.704,"longitude":121.382,"operationalFrom":null,"operationalTo":null},{"id":281,"name":"Hallam","country":"United States","countryCode":"US","status":"Shutdown","reactorType":"OCR","capacityMw":75,"latitude":40.559,"longitude":-96.785,"operationalFrom":"1963-11-01","operationalTo":"1964-09-01"},{"id":282,"name":"Hamaoka-1","country":"Japan","countryCode":"JP","status":"Shutdown","reactorType":"BWR","capacityMw":516,"latitude":34.621,"longitude":138.141,"operationalFrom":"1976-03-17","operationalTo":"2009-01-30"},{"id":283,"name":"Hamaoka-2","country":"Japan","countryCode":"JP","status":"Shutdown","reactorType":"BWR","capacityMw":814,"latitude":34.621,"longitude":138.141,"operationalFrom":"1978-11-29","operationalTo":"2009-01-30"},{"id":284,"name":"Hamaoka-3","country":"Japan","countryCode":"JP","status":"Suspended Operation","reactorType":"BWR","capacityMw":1056,"latitude":34.621,"longitude":138.141,"operationalFrom":"1987-08-28","operationalTo":null},{"id":285,"name":"Hamaoka-4","country":"Japan","countryCode":"JP","status":"Suspended Operation","reactorType":"BWR","capacityMw":1092,"latitude":34.621,"longitude":138.141,"operationalFrom":"1993-09-03","operationalTo":null},{"id":286,"name":"Hamaoka-5","country":"Japan","countryCode":"JP","status":"Suspended Operation","reactorType":"BWR","capacityMw":1325,"latitude":34.621,"longitude":138.141,"operationalFrom":"2005-01-18","operationalTo":null},{"id":287,"name":"Hamaoka-6","country":"Japan","countryCode":"JP","status":"Planned","reactorType":"ABWR","capacityMw":null,"latitude":34.621,"longitude":138.141,"operationalFrom":null,"operationalTo":null},{"id":288,"name":"Hanbit-1","country":"South Korea","countryCode":"KR","status":"Operational","reactorType":"PWR","capacityMw":903,"latitude":35.405,"longitude":126.41,"operationalFrom":"1986-08-25","operationalTo":null},{"id":289,"name":"Hanbit-2","country":"South Korea","countryCode":"KR","status":"Operational","reactorType":"PWR","capacityMw":903,"latitude":35.405,"longitude":126.41,"operationalFrom":"1987-06-10","operationalTo":null},{"id":290,"name":"Hanbit-3","country":"South Korea","countryCode":"KR","status":"Operational","reactorType":"PWR","capacityMw":950,"latitude":35.405,"longitude":126.41,"operationalFrom":"1995-03-31","operationalTo":null},{"id":291,"name":"Hanbit-4","country":"South Korea","countryCode":"KR","status":"Operational","reactorType":"PWR","capacityMw":950,"latitude":35.405,"longitude":126.41,"operationalFrom":"1996-01-01","operationalTo":null},{"id":292,"name":"Hanbit-5","country":"South Korea","countryCode":"KR","status":"Operational","reactorType":"PWR","capacityMw":950,"latitude":35.405,"longitude":126.41,"operationalFrom":"2002-05-21","operationalTo":null},{"id":293,"name":"Hanbit-6","country":"South Korea","countryCode":"KR","status":"Operational","reactorType":"PWR","capacityMw":993,"latitude":35.405,"longitude":126.41,"operationalFrom":"2002-12-24","operationalTo":null},{"id":294,"name":"Hanul-1","country":"South Korea","countryCode":"KR","status":"Operational","reactorType":"PWR","capacityMw":903,"latitude":37.09,"longitude":129.384444,"operationalFrom":"1988-09-10","operationalTo":null},{"id":295,"name":"Hanul-2","country":"South Korea","countryCode":"KR","status":"Operational","reactorType":"PWR","capacityMw":903,"latitude":37.09,"longitude":129.384444,"operationalFrom":"1989-09-30","operationalTo":null},{"id":296,"name":"Hanul-3","country":"South Korea","countryCode":"KR","status":"Operational","reactorType":"PWR","capacityMw":997,"latitude":37.09,"longitude":129.384444,"operationalFrom":"1998-08-11","operationalTo":null},{"id":297,"name":"Hanul-4","country":"South Korea","countryCode":"KR","status":"Operational","reactorType":"PWR","capacityMw":950,"latitude":37.09,"longitude":129.384444,"operationalFrom":"1999-12-31","operationalTo":null},{"id":298,"name":"Hanul-5","country":"South Korea","countryCode":"KR","status":"Operational","reactorType":"PWR","capacityMw":950,"latitude":37.09,"longitude":129.384444,"operationalFrom":"2004-07-29","operationalTo":null},{"id":299,"name":"Hanul-6","country":"South Korea","countryCode":"KR","status":"Operational","reactorType":"PWR","capacityMw":950,"latitude":37.09,"longitude":129.384444,"operationalFrom":"2005-04-22","operationalTo":null},{"id":300,"name":"Hartlepool-A1","country":"United Kingdom","countryCode":"GB","status":"Operational","reactorType":"GCR","capacityMw":590,"latitude":54.634,"longitude":-1.18,"operationalFrom":"1989-04-01","operationalTo":null},{"id":301,"name":"Hartlepool-A2","country":"United Kingdom","countryCode":"GB","status":"Operational","reactorType":"GCR","capacityMw":595,"latitude":54.634,"longitude":-1.18,"operationalFrom":"1989-04-01","operationalTo":null},{"id":302,"name":"Hatch-1","country":"United States","countryCode":"US","status":"Operational","reactorType":"BWR","capacityMw":777,"latitude":31.935,"longitude":-82.346,"operationalFrom":"1975-12-31","operationalTo":null},{"id":303,"name":"Hatch-2","country":"United States","countryCode":"US","status":"Operational","reactorType":"BWR","capacityMw":784,"latitude":31.935,"longitude":-82.346,"operationalFrom":"1979-09-05","operationalTo":null},{"id":304,"name":"Heysham-A1","country":"United Kingdom","countryCode":"GB","status":"Operational","reactorType":"GCR","capacityMw":611,"latitude":54.029,"longitude":-2.912,"operationalFrom":"1989-04-01","operationalTo":null},{"id":305,"name":"Heysham-A2","country":"United Kingdom","countryCode":"GB","status":"Operational","reactorType":"GCR","capacityMw":611,"latitude":54.029,"longitude":-2.912,"operationalFrom":"1989-04-01","operationalTo":null},{"id":306,"name":"Heysham-B1","country":"United Kingdom","countryCode":"GB","status":"Operational","reactorType":"GCR","capacityMw":615,"latitude":54.029,"longitude":-2.912,"operationalFrom":"1989-04-01","operationalTo":null},{"id":307,"name":"Heysham-B2","country":"United Kingdom","countryCode":"GB","status":"Operational","reactorType":"GCR","capacityMw":615,"latitude":54.029,"longitude":-2.912,"operationalFrom":"1989-04-01","operationalTo":null},{"id":308,"name":"Higashi Dori-1 (Tohoku)","country":"Japan","countryCode":"JP","status":"Suspended Operation","reactorType":"BWR","capacityMw":1067,"latitude":41.188,"longitude":141.393,"operationalFrom":"2005-12-08","operationalTo":null},{"id":309,"name":"Higashi Dori-1 (Tokyo)","country":"Japan","countryCode":"JP","status":"Planned","reactorType":"ABWR","capacityMw":null,"latitude":41.1856,"longitude":141.388,"operationalFrom":null,"operationalTo":null},{"id":310,"name":"Higashi Dori-2 (Tohoku)","country":"Japan","countryCode":"JP","status":"Planned","reactorType":"ABWR","capacityMw":null,"latitude":41.1856,"longitude":141.39,"operationalFrom":null,"operationalTo":null},{"id":311,"name":"Higashi Dori-2 (Tokyo)","country":"Japan","countryCode":"JP","status":"Planned","reactorType":"ABWR","capacityMw":null,"latitude":41.1856,"longitude":141.389,"operationalFrom":null,"operationalTo":null},{"id":312,"name":"Hinkley Point-A1","country":"United Kingdom","countryCode":"GB","status":"Shutdown","reactorType":"GCR","capacityMw":250,"latitude":51.209,"longitude":-3.131,"operationalFrom":"1965-03-30","operationalTo":"2000-05-23"},{"id":313,"name":"Hinkley Point-A2","country":"United Kingdom","countryCode":"GB","status":"Shutdown","reactorType":"GCR","capacityMw":250,"latitude":51.209,"longitude":-3.131,"operationalFrom":"1965-05-05","operationalTo":"2000-05-23"},{"id":314,"name":"Hinkley Point-B1","country":"United Kingdom","countryCode":"GB","status":"Shutdown","reactorType":"GCR","capacityMw":625,"latitude":51.209,"longitude":-3.131,"operationalFrom":"1978-10-02","operationalTo":"2022-08-01"},{"id":315,"name":"Hinkley Point-B2","country":"United Kingdom","countryCode":"GB","status":"Shutdown","reactorType":"GCR","capacityMw":625,"latitude":51.209,"longitude":-3.131,"operationalFrom":"1976-09-27","operationalTo":"2022-07-06"},{"id":316,"name":"Hinkley Point-C1","country":"United Kingdom","countryCode":"GB","status":"Under Construction","reactorType":"PWR","capacityMw":1630,"latitude":51.2087,"longitude":-3.1305,"operationalFrom":null,"operationalTo":null},{"id":317,"name":"Hinkley Point-C2","country":"United Kingdom","countryCode":"GB","status":"Under Construction","reactorType":"PWR","capacityMw":1630,"latitude":51.2087,"longitude":-3.1305,"operationalFrom":null,"operationalTo":null},{"id":320,"name":"Hongyanhe-1","country":"China","countryCode":"CN","status":"Operational","reactorType":"PWR","capacityMw":1061,"latitude":39.797,"longitude":121.4765,"operationalFrom":"2013-06-06","operationalTo":null},{"id":321,"name":"Hongyanhe-2","country":"China","countryCode":"CN","status":"Operational","reactorType":"PWR","capacityMw":1061,"latitude":39.797,"longitude":121.4765,"operationalFrom":"2014-05-13","operationalTo":null},{"id":322,"name":"Hongyanhe-3","country":"China","countryCode":"CN","status":"Operational","reactorType":"PWR","capacityMw":1061,"latitude":39.797,"longitude":121.4765,"operationalFrom":"2015-08-16","operationalTo":null},{"id":323,"name":"Hongyanhe-4","country":"China","countryCode":"CN","status":"Operational","reactorType":"PWR","capacityMw":1061,"latitude":39.797,"longitude":121.4765,"operationalFrom":"2016-06-08","operationalTo":null},{"id":324,"name":"Hongyanhe-5","country":"China","countryCode":"CN","status":"Operational","reactorType":"PWR","capacityMw":1061,"latitude":39.797,"longitude":121.4831,"operationalFrom":"2021-07-31","operationalTo":null},{"id":325,"name":"Hongyanhe-6","country":"China","countryCode":"CN","status":"Operational","reactorType":"PWR","capacityMw":1061,"latitude":39.797,"longitude":121.4831,"operationalFrom":"2022-06-23","operationalTo":null},{"id":326,"name":"Hope Creek-1","country":"United States","countryCode":"US","status":"Operational","reactorType":"BWR","capacityMw":1067,"latitude":39.467,"longitude":-75.535,"operationalFrom":"1986-12-20","operationalTo":null},{"id":327,"name":"Humboldt Bay","country":"United States","countryCode":"US","status":"Shutdown","reactorType":"BWR","capacityMw":65,"latitude":40.741,"longitude":-124.21,"operationalFrom":"1963-08-01","operationalTo":"1976-07-02"},{"id":328,"name":"Hunterston-A1","country":"United Kingdom","countryCode":"GB","status":"Shutdown","reactorType":"GCR","capacityMw":150,"latitude":55.722,"longitude":-4.893,"operationalFrom":"1964-02-05","operationalTo":"1990-03-30"},{"id":329,"name":"Hunterston-A2","country":"United Kingdom","countryCode":"GB","status":"Shutdown","reactorType":"GCR","capacityMw":150,"latitude":55.722,"longitude":-4.893,"operationalFrom":"1964-07-01","operationalTo":"1989-12-31"},{"id":330,"name":"Hunterston-B1","country":"United Kingdom","countryCode":"GB","status":"Shutdown","reactorType":"GCR","capacityMw":624,"latitude":55.722,"longitude":-4.893,"operationalFrom":"1976-02-07","operationalTo":"2021-11-26"},{"id":331,"name":"Hunterston-B2","country":"United Kingdom","countryCode":"GB","status":"Shutdown","reactorType":"GCR","capacityMw":624,"latitude":55.722,"longitude":-4.893,"operationalFrom":"1977-04-01","operationalTo":"2022-01-07"},{"id":332,"name":"Ignalina-1","country":"Lithuania","countryCode":"LT","status":"Shutdown","reactorType":"LWGR","capacityMw":1500,"latitude":55.604,"longitude":26.562,"operationalFrom":"1985-05-01","operationalTo":"2004-12-31"},{"id":333,"name":"Ignalina-2","country":"Lithuania","countryCode":"LT","status":"Shutdown","reactorType":"LWGR","capacityMw":1500,"latitude":55.604,"longitude":26.562,"operationalFrom":"1987-12-01","operationalTo":"2009-12-31"},{"id":334,"name":"Ignalina-3","country":"Lithuania","countryCode":"LT","status":"Cancelled Construction","reactorType":"LWGR","capacityMw":1380,"latitude":55.604,"longitude":26.562,"operationalFrom":null,"operationalTo":null},{"id":335,"name":"Ikata-1","country":"Japan","countryCode":"JP","status":"Shutdown","reactorType":"PWR","capacityMw":538,"latitude":33.491,"longitude":132.309,"operationalFrom":"1977-09-30","operationalTo":"2016-05-10"},{"id":336,"name":"Ikata-2","country":"Japan","countryCode":"JP","status":"Shutdown","reactorType":"PWR","capacityMw":538,"latitude":33.491,"longitude":132.309,"operationalFrom":"1982-03-19","operationalTo":"2018-05-23"},{"id":337,"name":"Ikata-3","country":"Japan","countryCode":"JP","status":"Operational","reactorType":"PWR","capacityMw":846,"latitude":33.491,"longitude":132.309,"operationalFrom":"1994-12-15","operationalTo":null},{"id":338,"name":"Indian Point-1","country":"United States","countryCode":"US","status":"Shutdown","reactorType":"PWR","capacityMw":265,"latitude":41.27,"longitude":-73.95,"operationalFrom":"1962-10-01","operationalTo":"1974-10-31"},{"id":339,"name":"Indian Point-2","country":"United States","countryCode":"US","status":"Shutdown","reactorType":"PWR","capacityMw":873,"latitude":41.27,"longitude":-73.95,"operationalFrom":"1974-08-01","operationalTo":"2020-04-30"},{"id":340,"name":"Indian Point-3","country":"United States","countryCode":"US","status":"Shutdown","reactorType":"PWR","capacityMw":965,"latitude":41.27,"longitude":-73.95,"operationalFrom":"1976-08-28","operationalTo":"2021-04-28"},{"id":341,"name":"Isar-1","country":"Germany","countryCode":"DE","status":"Shutdown","reactorType":"BWR","capacityMw":870,"latitude":48.607,"longitude":12.296,"operationalFrom":"1979-03-21","operationalTo":"2011-08-06"},{"id":342,"name":"Isar-2","country":"Germany","countryCode":"DE","status":"Shutdown","reactorType":"PWR","capacityMw":1285,"latitude":48.607,"longitude":12.296,"operationalFrom":"1988-04-09","operationalTo":"2023-04-15"},{"id":343,"name":"Jaitapur-1","country":"India","countryCode":"IN","status":"Planned","reactorType":"PWR","capacityMw":null,"latitude":16.595278,"longitude":73.341111,"operationalFrom":null,"operationalTo":null},{"id":344,"name":"Jaitapur-2","country":"India","countryCode":"IN","status":"Planned","reactorType":"PWR","capacityMw":null,"latitude":16.595278,"longitude":73.341111,"operationalFrom":null,"operationalTo":null},{"id":346,"name":"Jose Cabrera-1 (Zorita)","country":"Spain","countryCode":"ES","status":"Shutdown","reactorType":"PWR","capacityMw":153,"latitude":40.362,"longitude":-2.818,"operationalFrom":"1969-08-13","operationalTo":"2006-04-30"},{"id":347,"name":"JPDR","country":"Japan","countryCode":"JP","status":"Shutdown","reactorType":"BWR","capacityMw":10,"latitude":36.4625,"longitude":140.61,"operationalFrom":"1965-03-15","operationalTo":"1976-03-18"},{"id":348,"name":"AVR Juelich","country":"Germany","countryCode":"DE","status":"Shutdown","reactorType":"HTGR","capacityMw":13,"latitude":50.903,"longitude":6.421,"operationalFrom":"1969-05-19","operationalTo":"1988-12-31"},{"id":349,"name":"Kahl","country":"Germany","countryCode":"DE","status":"Decommissioning Completed","reactorType":"BWR","capacityMw":15,"latitude":50.059,"longitude":8.987,"operationalFrom":null,"operationalTo":"1985-11-25"},{"id":350,"name":"Kaiga-1","country":"India","countryCode":"IN","status":"Operational","reactorType":"PHWR","capacityMw":202,"latitude":14.865,"longitude":74.438,"operationalFrom":"2000-11-16","operationalTo":null},{"id":351,"name":"Kaiga-2","country":"India","countryCode":"IN","status":"Operational","reactorType":"PHWR","capacityMw":202,"latitude":14.865,"longitude":74.438,"operationalFrom":"2000-03-16","operationalTo":null},{"id":352,"name":"Kaiga-3","country":"India","countryCode":"IN","status":"Operational","reactorType":"PHWR","capacityMw":202,"latitude":14.865,"longitude":74.438,"operationalFrom":"2007-05-06","operationalTo":null},{"id":353,"name":"Kaiga-4","country":"India","countryCode":"IN","status":"Operational","reactorType":"PHWR","capacityMw":202,"latitude":14.865,"longitude":74.438,"operationalFrom":"2011-01-20","operationalTo":null},{"id":354,"name":"Kaiga-5","country":"India","countryCode":"IN","status":"Planned","reactorType":"PWR","capacityMw":null,"latitude":14.868,"longitude":74.4418,"operationalFrom":null,"operationalTo":null},{"id":355,"name":"Kaiga-6","country":"India","countryCode":"IN","status":"Planned","reactorType":"PWR","capacityMw":null,"latitude":14.868,"longitude":74.4422,"operationalFrom":null,"operationalTo":null},{"id":356,"name":"Kakrapar-1","country":"India","countryCode":"IN","status":"Operational","reactorType":"PHWR","capacityMw":202,"latitude":21.236,"longitude":73.351,"operationalFrom":"1993-05-06","operationalTo":null},{"id":357,"name":"Kakrapar-2","country":"India","countryCode":"IN","status":"Operational","reactorType":"PHWR","capacityMw":202,"latitude":21.236,"longitude":73.351,"operationalFrom":"1995-09-01","operationalTo":null},{"id":358,"name":"Kakrapar-3","country":"India","countryCode":"IN","status":"Operational","reactorType":"PHWR","capacityMw":630,"latitude":21.236,"longitude":73.351,"operationalFrom":null,"operationalTo":null},{"id":359,"name":"Kakrapar-4","country":"India","countryCode":"IN","status":"Under Construction","reactorType":"PHWR","capacityMw":630,"latitude":21.236,"longitude":73.351,"operationalFrom":null,"operationalTo":null},{"id":360,"name":"Kalinin-1","country":"Russia","countryCode":"RU","status":"Operational","reactorType":"PWR","capacityMw":950,"latitude":57.903,"longitude":35.057,"operationalFrom":"1985-06-12","operationalTo":null},{"id":361,"name":"Kalinin-2","country":"Russia","countryCode":"RU","status":"Operational","reactorType":"PWR","capacityMw":950,"latitude":57.903,"longitude":35.057,"operationalFrom":"1987-03-03","operationalTo":null},{"id":362,"name":"Kalinin-3","country":"Russia","countryCode":"RU","status":"Operational","reactorType":"PWR","capacityMw":950,"latitude":57.903,"longitude":35.057,"operationalFrom":"2005-11-08","operationalTo":null},{"id":363,"name":"Kalinin-4","country":"Russia","countryCode":"RU","status":"Operational","reactorType":"PWR","capacityMw":950,"latitude":57.903,"longitude":35.057,"operationalFrom":"2012-12-25","operationalTo":null},{"id":364,"name":"Kalpakkam (PFBR)","country":"India","countryCode":"IN","status":"Under Construction","reactorType":"FBR","capacityMw":470,"latitude":12.553,"longitude":80.174,"operationalFrom":null,"operationalTo":null},{"id":365,"name":"Kalpakkam-1 (Madras-1 / MAPS1)","country":"India","countryCode":"IN","status":"Suspended Operation","reactorType":"PHWR","capacityMw":202,"latitude":12.553,"longitude":80.174,"operationalFrom":"1984-01-27","operationalTo":null},{"id":366,"name":"Kalpakkam-2 (Madras-2 / MAPS2)","country":"India","countryCode":"IN","status":"Operational","reactorType":"PHWR","capacityMw":202,"latitude":12.553,"longitude":80.174,"operationalFrom":"1986-03-21","operationalTo":null},{"id":369,"name":"KANUPP-1","country":"Pakistan","countryCode":"PK","status":"Shutdown","reactorType":"PHWR","capacityMw":125,"latitude":24.845,"longitude":66.79,"operationalFrom":"1972-12-07","operationalTo":"2021-08-01"},{"id":370,"name":"MZFR","country":"Germany","countryCode":"DE","status":"Shutdown","reactorType":"PHWR","capacityMw":50,"latitude":49.104,"longitude":8.432,"operationalFrom":"1966-12-19","operationalTo":"1984-05-03"},{"id":371,"name":"Kashiwazaki Kariwa-1","country":"Japan","countryCode":"JP","status":"Suspended Operation","reactorType":"BWR","capacityMw":1067,"latitude":37.434,"longitude":138.598,"operationalFrom":"1985-09-18","operationalTo":null},{"id":372,"name":"Kashiwazaki Kariwa-2","country":"Japan","countryCode":"JP","status":"Suspended Operation","reactorType":"BWR","capacityMw":1067,"latitude":37.434,"longitude":138.598,"operationalFrom":"1990-09-28","operationalTo":null},{"id":373,"name":"Kashiwazaki Kariwa-3","country":"Japan","countryCode":"JP","status":"Suspended Operation","reactorType":"BWR","capacityMw":1067,"latitude":37.434,"longitude":138.598,"operationalFrom":"1993-08-11","operationalTo":null},{"id":374,"name":"Kashiwazaki Kariwa-4","country":"Japan","countryCode":"JP","status":"Suspended Operation","reactorType":"BWR","capacityMw":1067,"latitude":37.434,"longitude":138.598,"operationalFrom":"1994-08-11","operationalTo":null},{"id":375,"name":"Kashiwazaki Kariwa-5","country":"Japan","countryCode":"JP","status":"Suspended Operation","reactorType":"BWR","capacityMw":1067,"latitude":37.434,"longitude":138.598,"operationalFrom":"1990-04-10","operationalTo":null},{"id":376,"name":"Kashiwazaki Kariwa-6","country":"Japan","countryCode":"JP","status":"Suspended Operation","reactorType":"BWR","capacityMw":1315,"latitude":37.434,"longitude":138.598,"operationalFrom":"1996-11-07","operationalTo":null},{"id":377,"name":"Kashiwazaki Kariwa-7","country":"Japan","countryCode":"JP","status":"Suspended Operation","reactorType":"BWR","capacityMw":1315,"latitude":37.434,"longitude":138.598,"operationalFrom":"1997-07-02","operationalTo":null},{"id":378,"name":"Kewaunee","country":"United States","countryCode":"US","status":"Shutdown","reactorType":"PWR","capacityMw":535,"latitude":44.47,"longitude":-87.498,"operationalFrom":"1974-06-16","operationalTo":"2013-05-07"},{"id":379,"name":"Khmelnitski-1","country":"Ukraine","countryCode":"UA","status":"Operational","reactorType":"PWR","capacityMw":950,"latitude":50.301,"longitude":26.649,"operationalFrom":"1988-08-13","operationalTo":null},{"id":380,"name":"Khmelnitski-2","country":"Ukraine","countryCode":"UA","status":"Operational","reactorType":"PWR","capacityMw":950,"latitude":50.301,"longitude":26.649,"operationalFrom":"2005-12-15","operationalTo":null},{"id":381,"name":"Khmelnitski-3","country":"Ukraine","countryCode":"UA","status":"Under Construction","reactorType":"PWR","capacityMw":1035,"latitude":50.303056,"longitude":26.642778,"operationalFrom":null,"operationalTo":null},{"id":382,"name":"Khmelnitski-4","country":"Ukraine","countryCode":"UA","status":"Under Construction","reactorType":"PWR","capacityMw":1035,"latitude":50.303056,"longitude":26.642778,"operationalFrom":null,"operationalTo":null},{"id":383,"name":"KNK-II","country":"Germany","countryCode":"DE","status":"Shutdown","reactorType":"FBR","capacityMw":18,"latitude":49.098,"longitude":8.441,"operationalFrom":"1979-03-03","operationalTo":"1991-08-23"},{"id":384,"name":"Koeberg-1","country":"South Africa","countryCode":"ZA","status":"Operational","reactorType":"PWR","capacityMw":921,"latitude":-33.677,"longitude":18.433,"operationalFrom":"1984-07-21","operationalTo":null},{"id":385,"name":"Koeberg-2","country":"South Africa","countryCode":"ZA","status":"Operational","reactorType":"PWR","capacityMw":921,"latitude":-33.677,"longitude":18.433,"operationalFrom":"1985-11-09","operationalTo":null},{"id":386,"name":"Kola-1","country":"Russia","countryCode":"RU","status":"Operational","reactorType":"PWR","capacityMw":411,"latitude":67.467,"longitude":32.491,"operationalFrom":"1973-12-28","operationalTo":null},{"id":387,"name":"Kola-2","country":"Russia","countryCode":"RU","status":"Operational","reactorType":"PWR","capacityMw":411,"latitude":67.467,"longitude":32.491,"operationalFrom":"1975-02-21","operationalTo":null},{"id":388,"name":"Kola-3","country":"Russia","countryCode":"RU","status":"Operational","reactorType":"PWR","capacityMw":411,"latitude":67.467,"longitude":32.491,"operationalFrom":"1982-12-03","operationalTo":null},{"id":389,"name":"Kola-4","country":"Russia","countryCode":"RU","status":"Operational","reactorType":"PWR","capacityMw":411,"latitude":67.467,"longitude":32.491,"operationalFrom":"1984-12-06","operationalTo":null},{"id":390,"name":"Kori-1","country":"South Korea","countryCode":"KR","status":"Shutdown","reactorType":"PWR","capacityMw":558,"latitude":35.321,"longitude":129.295,"operationalFrom":"1978-04-29","operationalTo":"2017-06-18"},{"id":391,"name":"Kori-2","country":"South Korea","countryCode":"KR","status":"Operational","reactorType":"PWR","capacityMw":618,"latitude":35.321,"longitude":129.295,"operationalFrom":"1983-07-25","operationalTo":null},{"id":392,"name":"Kori-3","country":"South Korea","countryCode":"KR","status":"Operational","reactorType":"PWR","capacityMw":1001,"latitude":35.321,"longitude":129.295,"operationalFrom":"1985-09-30","operationalTo":null},{"id":393,"name":"Kori-4","country":"South Korea","countryCode":"KR","status":"Operational","reactorType":"PWR","capacityMw":1012,"latitude":35.321,"longitude":129.295,"operationalFrom":"1986-04-29","operationalTo":null},{"id":394,"name":"Kozloduy-1","country":"Bulgaria","countryCode":"BG","status":"Shutdown","reactorType":"PWR","capacityMw":408,"latitude":43.744,"longitude":23.776,"operationalFrom":"1974-10-28","operationalTo":"2002-12-31"},{"id":395,"name":"Kozloduy-2","country":"Bulgaria","countryCode":"BG","status":"Shutdown","reactorType":"PWR","capacityMw":408,"latitude":43.744,"longitude":23.776,"operationalFrom":"1975-11-10","operationalTo":"2002-12-31"},{"id":396,"name":"Kozloduy-3","country":"Bulgaria","countryCode":"BG","status":"Shutdown","reactorType":"PWR","capacityMw":408,"latitude":43.744,"longitude":23.776,"operationalFrom":"1981-01-20","operationalTo":"2006-12-31"},{"id":397,"name":"Kozloduy-4","country":"Bulgaria","countryCode":"BG","status":"Shutdown","reactorType":"PWR","capacityMw":408,"latitude":43.744,"longitude":23.776,"operationalFrom":"1982-06-20","operationalTo":"2006-12-31"},{"id":398,"name":"Kozloduy-5","country":"Bulgaria","countryCode":"BG","status":"Operational","reactorType":"PWR","capacityMw":953,"latitude":43.744,"longitude":23.776,"operationalFrom":"1988-12-23","operationalTo":null},{"id":399,"name":"Kozloduy-6","country":"Bulgaria","countryCode":"BG","status":"Operational","reactorType":"PWR","capacityMw":1003,"latitude":43.744,"longitude":23.776,"operationalFrom":"1993-12-30","operationalTo":null},{"id":400,"name":"Krsko","country":"Slovenia","countryCode":"SI","status":"Operational","reactorType":"PWR","capacityMw":632,"latitude":45.939,"longitude":15.516,"operationalFrom":"1983-01-01","operationalTo":null},{"id":401,"name":"Kruemmel","country":"Germany","countryCode":"DE","status":"Shutdown","reactorType":"BWR","capacityMw":1260,"latitude":53.41,"longitude":10.41,"operationalFrom":"1984-03-28","operationalTo":"2011-08-06"},{"id":402,"name":"Kudankulam-1","country":"India","countryCode":"IN","status":"Operational","reactorType":"PWR","capacityMw":917,"latitude":8.167,"longitude":77.713,"operationalFrom":"2014-12-31","operationalTo":null},{"id":403,"name":"Kudankulam-2","country":"India","countryCode":"IN","status":"Operational","reactorType":"PWR","capacityMw":917,"latitude":8.167,"longitude":77.713,"operationalFrom":"2017-03-31","operationalTo":null},{"id":404,"name":"Kudankulam-3","country":"India","countryCode":"IN","status":"Under Construction","reactorType":"PWR","capacityMw":917,"latitude":8.16705,"longitude":77.708,"operationalFrom":null,"operationalTo":null},{"id":405,"name":"Kudankulam-4","country":"India","countryCode":"IN","status":"Under Construction","reactorType":"PWR","capacityMw":917,"latitude":8.16666,"longitude":77.708,"operationalFrom":null,"operationalTo":null},{"id":406,"name":"Kudankulam-5","country":"India","countryCode":"IN","status":"Under Construction","reactorType":"PWR","capacityMw":917,"latitude":8.16627,"longitude":77.708,"operationalFrom":null,"operationalTo":null},{"id":407,"name":"Kudankulam-6","country":"India","countryCode":"IN","status":"Under Construction","reactorType":"PWR","capacityMw":917,"latitude":8.16588,"longitude":77.708,"operationalFrom":null,"operationalTo":null},{"id":412,"name":"Kuosheng-1","country":"Taiwan","countryCode":"TW","status":"Shutdown","reactorType":"BWR","capacityMw":948,"latitude":25.203,"longitude":121.662,"operationalFrom":"1981-12-28","operationalTo":"2021-12-28"},{"id":413,"name":"Kuosheng-2","country":"Taiwan","countryCode":"TW","status":"Shutdown","reactorType":"BWR","capacityMw":948,"latitude":25.203,"longitude":121.662,"operationalFrom":"1983-03-16","operationalTo":"2023-03-14"},{"id":414,"name":"Kursk-1","country":"Russia","countryCode":"RU","status":"Shutdown","reactorType":"LWGR","capacityMw":925,"latitude":51.674,"longitude":35.607,"operationalFrom":"1977-10-12","operationalTo":"2021-12-19"},{"id":415,"name":"Kursk-2","country":"Russia","countryCode":"RU","status":"Operational","reactorType":"LWGR","capacityMw":925,"latitude":51.674,"longitude":35.607,"operationalFrom":"1979-08-17","operationalTo":null},{"id":416,"name":"Kursk-3","country":"Russia","countryCode":"RU","status":"Operational","reactorType":"LWGR","capacityMw":925,"latitude":51.674,"longitude":35.607,"operationalFrom":"1984-03-30","operationalTo":null},{"id":417,"name":"Kursk-4","country":"Russia","countryCode":"RU","status":"Operational","reactorType":"LWGR","capacityMw":925,"latitude":51.674,"longitude":35.607,"operationalFrom":"1986-02-05","operationalTo":null},{"id":418,"name":"LaCrosse","country":"United States","countryCode":"US","status":"Shutdown","reactorType":"BWR","capacityMw":50,"latitude":43.559,"longitude":-91.23,"operationalFrom":"1969-11-07","operationalTo":"1987-04-30"},{"id":419,"name":"Laguna Verde-1","country":"Mexico","countryCode":"MX","status":"Operational","reactorType":"BWR","capacityMw":780,"latitude":19.719,"longitude":-96.405,"operationalFrom":"1990-07-28","operationalTo":null},{"id":420,"name":"Laguna Verde-2","country":"Mexico","countryCode":"MX","status":"Operational","reactorType":"BWR","capacityMw":780,"latitude":19.719,"longitude":-96.405,"operationalFrom":"1995-04-10","operationalTo":null},{"id":421,"name":"LaSalle-1","country":"United States","countryCode":"US","status":"Operational","reactorType":"BWR","capacityMw":1078,"latitude":41.246,"longitude":-88.672,"operationalFrom":"1984-01-01","operationalTo":null},{"id":422,"name":"LaSalle-2","country":"United States","countryCode":"US","status":"Operational","reactorType":"BWR","capacityMw":1078,"latitude":41.246,"longitude":-88.672,"operationalFrom":"1984-10-19","operationalTo":null},{"id":423,"name":"Latina","country":"Italy","countryCode":"IT","status":"Shutdown","reactorType":"GCR","capacityMw":200,"latitude":41.427,"longitude":12.808,"operationalFrom":"1964-01-01","operationalTo":"1987-12-01"},{"id":424,"name":"Leibstadt","country":"Switzerland","countryCode":"CH","status":"Operational","reactorType":"BWR","capacityMw":960,"latitude":47.601,"longitude":8.183,"operationalFrom":"1984-12-15","operationalTo":null},{"id":425,"name":"Leningrad 2-1","country":"Russia","countryCode":"RU","status":"Operational","reactorType":"PWR","capacityMw":1066,"latitude":59.837,"longitude":29.039,"operationalFrom":"2018-10-29","operationalTo":null},{"id":426,"name":"Leningrad 2-2","country":"Russia","countryCode":"RU","status":"Operational","reactorType":"PWR","capacityMw":1066,"latitude":59.837,"longitude":29.039,"operationalFrom":"2021-03-18","operationalTo":null},{"id":427,"name":"Leningrad 2-3","country":"Russia","countryCode":"RU","status":"Planned","reactorType":"PWR","capacityMw":1085,"latitude":59.837,"longitude":29.039,"operationalFrom":null,"operationalTo":null},{"id":428,"name":"Leningrad 2-4","country":"Russia","countryCode":"RU","status":"Planned","reactorType":"PWR","capacityMw":1085,"latitude":59.837,"longitude":29.039,"operationalFrom":null,"operationalTo":null},{"id":429,"name":"Leningrad-1","country":"Russia","countryCode":"RU","status":"Shutdown","reactorType":"LWGR","capacityMw":925,"latitude":59.837,"longitude":29.039,"operationalFrom":"1974-11-01","operationalTo":"2018-12-22"},{"id":430,"name":"Leningrad-2","country":"Russia","countryCode":"RU","status":"Shutdown","reactorType":"LWGR","capacityMw":925,"latitude":59.837,"longitude":29.039,"operationalFrom":"1976-02-11","operationalTo":"2020-11-10"},{"id":431,"name":"Leningrad-3","country":"Russia","countryCode":"RU","status":"Operational","reactorType":"LWGR","capacityMw":925,"latitude":59.837,"longitude":29.039,"operationalFrom":"1980-06-29","operationalTo":null},{"id":432,"name":"Leningrad-4","country":"Russia","countryCode":"RU","status":"Operational","reactorType":"LWGR","capacityMw":925,"latitude":59.837,"longitude":29.039,"operationalFrom":"1981-08-29","operationalTo":null},{"id":435,"name":"Limerick-1","country":"United States","countryCode":"US","status":"Operational","reactorType":"BWR","capacityMw":1055,"latitude":40.225,"longitude":-75.584,"operationalFrom":"1986-02-01","operationalTo":null},{"id":436,"name":"Limerick-2","country":"United States","countryCode":"US","status":"Operational","reactorType":"BWR","capacityMw":1055,"latitude":40.225,"longitude":-75.584,"operationalFrom":"1990-01-08","operationalTo":null},{"id":437,"name":"Lingao-1","country":"China","countryCode":"CN","status":"Operational","reactorType":"PWR","capacityMw":950,"latitude":22.606,"longitude":114.55,"operationalFrom":"2002-05-28","operationalTo":null},{"id":438,"name":"Lingao-2","country":"China","countryCode":"CN","status":"Operational","reactorType":"PWR","capacityMw":950,"latitude":22.606,"longitude":114.55,"operationalFrom":"2003-01-08","operationalTo":null},{"id":439,"name":"Lingao-3","country":"China","countryCode":"CN","status":"Operational","reactorType":"PWR","capacityMw":1007,"latitude":22.609,"longitude":114.552,"operationalFrom":"2010-09-15","operationalTo":null},{"id":440,"name":"Lingao-4","country":"China","countryCode":"CN","status":"Operational","reactorType":"PWR","capacityMw":1007,"latitude":22.609,"longitude":114.552,"operationalFrom":"2011-08-07","operationalTo":null},{"id":441,"name":"Lingen","country":"Germany","countryCode":"DE","status":"Shutdown","reactorType":"BWR","capacityMw":183,"latitude":52.483,"longitude":7.302,"operationalFrom":"1968-10-01","operationalTo":"1977-01-05"},{"id":444,"name":"Loviisa-1","country":"Finland","countryCode":"FI","status":"Operational","reactorType":"PWR","capacityMw":420,"latitude":60.372,"longitude":26.342,"operationalFrom":"1977-05-09","operationalTo":null},{"id":445,"name":"Loviisa-2","country":"Finland","countryCode":"FI","status":"Operational","reactorType":"PWR","capacityMw":420,"latitude":60.372,"longitude":26.342,"operationalFrom":"1981-01-05","operationalTo":null},{"id":446,"name":"Lucens","country":"Switzerland","countryCode":"CH","status":"Shutdown","reactorType":"HWGCR","capacityMw":6,"latitude":46.693,"longitude":6.827,"operationalFrom":null,"operationalTo":"1969-01-21"},{"id":447,"name":"Lungmen-1","country":"Taiwan","countryCode":"TW","status":"Suspended Construction","reactorType":"BWR","capacityMw":1300,"latitude":25.038,"longitude":121.924,"operationalFrom":null,"operationalTo":null},{"id":448,"name":"Lungmen-2","country":"Taiwan","countryCode":"TW","status":"Suspended Construction","reactorType":"BWR","capacityMw":1300,"latitude":25.038,"longitude":121.924,"operationalFrom":null,"operationalTo":null},{"id":449,"name":"Maanshan-1","country":"Taiwan","countryCode":"TW","status":"Operational","reactorType":"PWR","capacityMw":936,"latitude":25.038,"longitude":121.924,"operationalFrom":"1984-07-27","operationalTo":null},{"id":450,"name":"Maanshan-2","country":"Taiwan","countryCode":"TW","status":"Operational","reactorType":"PWR","capacityMw":938,"latitude":25.038,"longitude":121.924,"operationalFrom":"1985-05-18","operationalTo":null},{"id":451,"name":"Maine Yankee","country":"United States","countryCode":"US","status":"Shutdown","reactorType":"PWR","capacityMw":825,"latitude":43.951,"longitude":-69.695,"operationalFrom":"1972-12-28","operationalTo":"1997-08-01"},{"id":452,"name":"McGuire-1","country":"United States","countryCode":"US","status":"Operational","reactorType":"PWR","capacityMw":1180,"latitude":35.433,"longitude":-80.946,"operationalFrom":"1981-12-01","operationalTo":null},{"id":453,"name":"McGuire-2","country":"United States","countryCode":"US","status":"Operational","reactorType":"PWR","capacityMw":1180,"latitude":35.433,"longitude":-80.946,"operationalFrom":"1984-03-01","operationalTo":null},{"id":454,"name":"Mihama-1","country":"Japan","countryCode":"JP","status":"Shutdown","reactorType":"PWR","capacityMw":320,"latitude":35.701,"longitude":135.962,"operationalFrom":"1970-11-28","operationalTo":"2015-04-27"},{"id":455,"name":"Mihama-2","country":"Japan","countryCode":"JP","status":"Shutdown","reactorType":"PWR","capacityMw":470,"latitude":35.701,"longitude":135.962,"operationalFrom":"1972-07-25","operationalTo":"2015-04-27"},{"id":456,"name":"Mihama-3","country":"Japan","countryCode":"JP","status":"Operational","reactorType":"PWR","capacityMw":780,"latitude":35.701,"longitude":135.962,"operationalFrom":"1976-12-01","operationalTo":null},{"id":457,"name":"Millstone-1","country":"United States","countryCode":"US","status":"Shutdown","reactorType":"BWR","capacityMw":660,"latitude":41.312,"longitude":-72.166,"operationalFrom":"1971-03-01","operationalTo":"1998-07-01"},{"id":458,"name":"Millstone-2","country":"United States","countryCode":"US","status":"Operational","reactorType":"PWR","capacityMw":870,"latitude":41.312,"longitude":-72.166,"operationalFrom":"1975-12-26","operationalTo":null},{"id":459,"name":"Millstone-3","country":"United States","countryCode":"US","status":"Operational","reactorType":"PWR","capacityMw":1159,"latitude":41.312,"longitude":-72.166,"operationalFrom":"1986-04-23","operationalTo":null},{"id":460,"name":"Mochovce-1","country":"Slovakia","countryCode":"SK","status":"Operational","reactorType":"PWR","capacityMw":408,"latitude":48.261,"longitude":18.455,"operationalFrom":"1998-10-29","operationalTo":null},{"id":461,"name":"Mochovce-2","country":"Slovakia","countryCode":"SK","status":"Operational","reactorType":"PWR","capacityMw":408,"latitude":48.261,"longitude":18.455,"operationalFrom":"2000-04-11","operationalTo":null},{"id":462,"name":"Mochovce-3","country":"Slovakia","countryCode":"SK","status":"Operational","reactorType":"PWR","capacityMw":440,"latitude":48.261,"longitude":18.455,"operationalFrom":null,"operationalTo":null},{"id":463,"name":"Mochovce-4","country":"Slovakia","countryCode":"SK","status":"Under Construction","reactorType":"PWR","capacityMw":440,"latitude":48.261,"longitude":18.455,"operationalFrom":null,"operationalTo":null},{"id":464,"name":"Monju","country":"Japan","countryCode":"JP","status":"Shutdown","reactorType":"FBR","capacityMw":246,"latitude":35.739,"longitude":135.988,"operationalFrom":null,"operationalTo":"2017-12-05"},{"id":465,"name":"Monticello","country":"United States","countryCode":"US","status":"Operational","reactorType":"BWR","capacityMw":545,"latitude":45.334,"longitude":-93.85,"operationalFrom":"1971-06-30","operationalTo":null},{"id":466,"name":"Muehleberg","country":"Switzerland","countryCode":"CH","status":"Shutdown","reactorType":"BWR","capacityMw":306,"latitude":46.969,"longitude":7.266,"operationalFrom":"1972-11-06","operationalTo":"2019-12-20"},